stop_lat,wheelchair_boarding,stop_code,stop_lon,stop_timezone,stop_url,parent_station,stop_desc,stop_name,location_type,stop_id,zone_id
43.832659,1,1583,-79.110984,,,,,Strouds Lane Eastbound @ Fairport,0,1583:1,
43.860433,1,2240,-79.028621,,,,,Eastbound @ 113 Kingston,0,2240:1,
43.901366,1,93552,-78.832565,,,,,Harmony Northbound @ Capri,0,93552:1,
43.826274,1,1518,-79.14505,,,,,Pine Grove Southbound @ Sandhurst,0,1518:1,
43.895107,1,1257,-78.831268,,,,,Olive Westbound @ Elmridge,0,1257:1,
43.8301782,1,1581,-79.1178386,,,,,Strouds Lane Eastbound @ Shadybrook,0,1581:1,
43.861546,1,2285,-79.040329,,,,,Westney Northbound @ Ravenscroft,0,2285:1,
43.821244,1,2015,-79.022832,,,,,Finley Southbound @ Burden,0,2015:1,
43.787494,1,3589,-79.190831,,,,,Centennial Circle,0,3589:1,
43.862229,1,42,-78.935434,,,,,Victoria Westbound @ Brock Street,0,42:1,
43.87030193,1,2287,-79.040561,,,,,Westney Northbound @ Ivers,0,2287:1,
43.887956,2,2246,-79.048166,,,,,Westney Southbound @ Atherton,0,2246:1,
43.911329,1,1498,-78.675014,,,,,Simpson Northbound @ King,0,1498:1,
43.936993,2,826,-78.861025,,,,,Taunton Westbound @ Wilson (West side stop),0,826:1,
43.846033,1,2308,-79.009096,,,,,Bayly Eastbound @ Porte,0,2308:1,
43.881817,2,2248,-79.045538,,,,,Southbound @ 1328 Westney,0,2248:1,
43.827539,2,3323,-79.086882,,,,,Liverpool Southbound @ Tatra,0,3323:1,
43.821475,1,93234,-79.080852,,,,,Krosno Eastbound @ Annland,0,93234:1,
43.8643554,1,1590,-79.0125542,,,,,Kingston Westbound @ Wicks,0,1590:1,
43.841898,1,3329,-79.020169,,,,,Southbound @ 40 Kitney,0,3329:1,
43.820175,2,3077,-79.030201,,,,,Parkes Northbound @ Varley,0,3077:1,
43.908595,1,604,-78.901271,,,,,Rossland Westbound @ Thornton,0,604:1,
43.92776,1,93368,-78.844146,,,,,Harmony Northbound @ Storie,0,93368:1,
43.942102,1,812,-78.848752,,,,,Harmony Terminal,0,812:1,
43.94900213,1,90045,-78.864314,,,,,Wilson Northbound @ Greenhill,0,90045:1,
43.894441,1,1258,-78.834343,,,,,Olive Westbound @ Poplar,0,1258:1,
43.83484,1,2093,-79.003515,,,,,Northbound @ 727 Pickering Beach,0,2093:1,
43.940279,1,810,-78.849628,,,,,Harmony Northbound @ Taunton (North Side Stop),0,810:1,
43.910599,1,602,-78.891821,,,,,Rossland Westbound @ Stevenson,0,602:1,
43.824917,1,2003,-79.085611,,,,,Liverpool Northbound @ Patmore,0,2003:1,
43.847531,1,1943,-79.068619,,,,,Bainbridge Eastbound @ Burnside,0,1943:1,
43.842627,2,93313,-79.107737,,,,,Finch Eastbound @ Lynn Heights,0,93313:1,
43.954559,2,3138,-78.86666,,,,,Conlin Westbound @ Wilson,0,3138:1,
43.841101,1,2095,-79.006067,,,,,Pickering Beach Northbound @ Howling Crescent,0,2095:1,
43.9140712,2,93726,-78.745721,,,,,Durham Highway 2 Westbound @ Rundle,0,937261,
43.8856414,1,389,-78.917045,,,,,Dundas Westbound @ Bowman,0,389:1,
43.921498,1,294,-78.917227,,,,,Garrard Southbound @ Shore,0,294:1,
43.911048,1,1219,-78.788115,,,,,Highway 2 Westbound @ Trulls,0,1219:1,
43.85708,1,970,-78.857771,,,,,Renaissance Westbound @ Charter,0,970:1,
43.9354034,1,828,-78.8685493,,,,,Taunton Westbound @ Ritson,0,828:1,
43.906513,1,93236,-78.85589,,,,,Adelaide Eastbound @ Ritson,0,93236:1,
43.94557611,1,90043,-78.857899,,,,,Coldstream Westbound @ Clearbrook,0,90043:1,
43.9557,2,3422,-78.90185,,,,,Britannia Westbound @ Thoroughbred,0,3422:1,
43.868849,1,998,-78.853952,,,,,Oxford Northbound @ Wentworth,0,998:1,
43.818731,1,1524,-79.150199,,,,,Valley Ridge Southbound @ White Pine,0,1524:1,
43.851311,2,93121,-79.022762,,,,,Station Westbound @ Harwood,0,93121:1,
43.875829,2,213,-78.940579,,,,,Brock Street Southbound @ Ontario,0,213:1,
43.945539,1,90053,-78.865092,,,,,Coldstream Eastbound @ Ormond,0,90053:1,
44.109644,2,93704,-79.125063,,,,,Railway Southbound @ Albert,0,937041,
43.91571,2,3420,-78.91904,,,,,Dryden Westbound @ Bakerville,0,3420:1,
43.790487,2,93991,-79.234372,,,,,Progress Southbound @ Milner Avenue,0,939911,
43.906731,1,751,-78.855623,,,,,Adelaide Westbound @ Ritson,0,751:1,
43.904639,1,753,-78.864441,,,,,Adelaide Westbound @ Kendal,0,753:1,
43.867405,2,1052,-78.899322,,,,,Eastbound @ 1733 Victoria,0,1052:1,
43.8466244,2,1945,-79.0646544,,,,,Marshcourt Southbound @ Beechlawn,0,1945:1,
43.922224,1,364,-78.926791,,,,,Taunton Westbound @ Thickson,0,364:1,
43.868657,1,990,-78.853995,,,,,Oxford Southbound @ Calvert,0,990:1,
44.04992,2,2466,-78.923906,,,,,Simcoe Northbound @ Shirley (Shirley Road Commuter Parking),0,2466:1,
43.919855,1,366,-78.937201,,,,,Taunton Westbound @ Anderson,0,366:1,
43.872757,2,215,-78.939236,,,,,Southbound @ 786 Brock Street,0,215:1,
43.895662,1,93137,-79.0297218,,,,,Salem Northbound @ Elliottglen Dr,0,93137:1,
43.883763,2,209,-78.943838,,,,,Brock Street Southbound @ Walnut,0,209:1,
43.8994523,2,3413,-78.9184387,,,,,Thickson Southbound @ Marta,0,3413:1,
43.821606,1,1522,-79.15148,,,,,Valley Ridge Southbound @ Copley,0,1522:1,
43.834981,2,94088,-79.021702,,,,,Monarch Northbound @ Clements,0,940881,
43.903673,2,3411,-78.920314,,,,,Thickson Southbound @ Rossland,0,3411:1,
43.884234,1,446,-78.90648,,,,,Nichol Westbound @ Springwood,0,446:1,
43.912294,2,185,-78.956318,,,,,Brock Street Northbound @ Joy Thompson,0,185:1,
43.888891,1,93466,-78.805747,,,,,Townline Southbound @ Down,0,93466:1,
43.917123,2,94040,-78.791102,,,,,Trulls Southbound @ Devondale,0,940401,
43.879544,1,2164,-79.02673,,,,,Harwood Northbound @ Rossland,0,2164:1,
43.85912,1,93458,-79.07955,,,,,Brock Road Southbound @ Dellbrook,0,93458:1,
43.999617,2,2460,-78.919108,,,,,Simcoe Northbound @ Howden,0,2460:1,
43.862763,1,996,-78.853452,,,,,Oxford Northbound @ Dwight,0,996:1,
43.85988205,1,92075,-79.01450543,,,,,Salem Southbound @ Mandrake,0,92075:1,
43.8943729,1,203,-78.9484346,,,,,Brock Street Southbound @ Palmerston,0,203:1,
43.87172121,1,2166,-79.060263,,,,,Westbound @ 570 Rossland,0,2166:1,
43.878277,1,140,-78.963114,,,,,McQuay Southbound @ Moonstone,0,140:1,
43.900605,2,201,-78.951449,,,,,Brock Street Southbound @ McCartney,0,201:1,
43.867666,1,991,-78.853571,,,,,Oxford Southbound @ Chandos,0,991:1,
43.833439,2,1909,-79.084465,,,,,Pickering Town Centre,0,1909:1,
43.837188,1,3615,-79.016527,,,,,Lakeridge Health Ajax Pickering East Entrance,0,36151,
43.873007,1,1020,-78.846475,,,,,Wentworth Eastbound @ Ravine,0,1020:1,
43.85911722,2,93460,-78.879086,,,,,Thornton Northbound @ Skae,0,93460:1,
43.840287,1,2300,-79.03458,,,,,Bayly Eastbound @ Westney,0,2300:1,
43.8581551,2,93559,-78.9532997,,,,,Victoria Eastbound @ Seaboard Gate,0,935591,
43.9524,2,94104,-78.87569,,,,,Conlin Eastbound @ Ritson (East side stop),0,941041,
43.841851,1,2302,-79.027566,,,,,Bayly Eastbound @ Mackenzie,0,2302:1,
43.881319,1,1119,-78.829233,,,,,Farewell Southbound @ Raleigh,0,1119:1,
43.855292,1,2154,-79.023336,,,,,Harwood Southbound @ Brock Street,0,2154:1,
43.899752,1,1154,-78.831838,,,,,Harmony Northbound @ Hoskin,0,1154:1,
43.85744,1,1598,-79.043041,,,,,Kingston Westbound @ Westney,0,1598:1,
43.906668,2,183,-78.953906,,,,,Northbound @ 3603 Brock Street,0,183:1,
43.904248,2,1156,-78.835009,,,,,King Westbound @ Harmony,0,1156:1,
43.962954,2,94113,-78.964356,,,,,Carnwith Eastbound @ Way,0,941131,
43.85417,2,2234,-79.056628,,,,,Eastbound @ 625 Kingston,0,2234:1,
43.8230252,1,1842,-79.0848981,,,,,Liverpool Southbound @ Haller,0,1842:1,
43.956057,2,93568,-78.892605,,,,,Britannia Westbound @ Bridle,0,935681,
43.9556422953,2,3556,-78.8997537674,,,,,Simcoe Southbound @ Britannia,0,3556:1,
43.826269,1,1692,-79.094717,,,,,Bayly Eastbound @ Begley,0,1692:1,
43.888161,2,94062,-78.969356,,,,,McQuay Southbound @ Renfield,0,940621,
43.882509,1,448,-78.912511,,,,,Nichol Westbound @ Thickson,0,448:1,
43.873205,1,93242,-78.907153,,,,,Thickson Southbound @ Consumers,0,93242:1,
43.882767,1,315,-78.911373,,,,,Thickson Southbound @ Nichol,0,315:1,
43.821982,2,1711,-79.051915,,,,,Squires Beach Northbound @ McKay,0,1711:1,
43.87764539,1,317,-78.908946,,,,,Thickson Southbound @ Burns,0,317:1,
43.87795,2,3562,-78.832953,,,,,Wentworth Westbound @ Wilson,0,3562:1,
43.832102,1,94090,-79.032704,,,,,Clements Westbound @ Westney,0,940901,
43.9188963,1,380,-78.9406966,,,,,Eastbound @ 435 Taunton,0,380:1,
43.828787,1,1694,-79.086666,,,,,Bayly Eastbound @ Liverpool,0,1694:1,
43.904842,2,93013,-79.001623,,,,,Taunton Eastbound @ Lake Ridge,0,93013:1,
43.88699031,2,1362,-78.869855,,,,,Park Southbound @ Marland,0,1362:1,
43.891145,1,471,-78.978273,,,,,Rossland Eastbound @ McQuay,0,471:1,
43.815436,2,1707,-79.06029,,,,,Montgomery Park Eastbound @ Brock Road,0,1707:1,
43.870662,1,2585,-78.886365,,,,,Oshawa Station,0,2585:1,
43.876345,2,93276,-78.878626,,,,,Champlain Westbound @ Fox,0,93276:1,
43.911026,2,1455,-78.684811,,,,,King Eastbound @ Ontario,0,1455:1,
43.912852,2,125,-78.967362,,,,,Taunton Eastbound @ Cochrane,0,125:1,
43.858316,2,3029,-79.038196,,,,,Kingston Eastbound @ Westney Heights Plaza,0,3029:1,
43.852479,2,93557,-78.979306,,,,,Bayly Eastbound @ Lake Ridge,0,935571,
43.841299,2,1873,-79.114271,,,,,Finch Westbound @ Fairport,0,1873:1,
43.896968,1,31,-78.938877,,,,,Garden Southbound @ Bassett,0,31:1,
43.8747274,2,93015,-79.0500943,,,,,Rossland Westbound @ Stevensgate,0,93015:1,
43.898728,1,477,-78.944498,,,,,Rossland Eastbound @ Civic Centre Drive,0,477:1,
43.84276,2,1871,-79.107413,,,,,Finch Westbound @ Lynn Heights,0,1871:1,
43.8946786,2,1364,-78.873147,,,,,Park Northbound @ King,0,1364:1,
43.87883,2,93146,-79.017271,,,,,Northbound @ 967 Salem,0,93146:1_merged_999965,
43.825457,1,2064,-79.013211,,,,,Harwood Northbound @ Clover Ridge,0,2064:1,
43.855562,1,93001,-78.865681,,,,,Renaissance Westbound @ Noel,0,93001:1,
43.869763,2,324,-78.918451,,,,,Westbound @ 106 Consumers,0,324:1,
43.878356,2,3302,-79.0334,,,,,Rossland Eastbound @ Woodcock,0,3302:1,
43.9072446,1,488,-78.9069581,,,,,Rossland Eastbound @ William Davidson,0,488:1,
43.879842,1,139,-78.965696,,,,,McQuay Southbound @ Kennett,0,139:1,
43.8689872,1,326,-78.9237719,,,,,Consumers Westbound @ Cannon,0,326:1,
43.8587,1,3584,-78.94381,,,,,Gordon Southbound @ Whitby Shores Greenway,0,35841,
43.821489,2,2062,-79.012673,,,,,Lake Driveway Eastbound @ Harwood,0,2062:1,
43.925753,1,3178,-78.854111,,,,,Wilson Northbound @ Attersley,0,3178:1,
43.815212,2,1705,-79.070712,,,,,Southbound @ 675 Sandy Beach Road,0,1705:1,
43.87216,1,92016,-79.05784,,,,,Rossland Eastbound @ Harkins,0,92016:1,
43.879163,1,93145,-79.017714,,,,,Southbound @ 800 Salem,0,93145:1_merged_999967,
43.879163,1,93145,-79.017714,,,,,Southbound @ 964 Salem,0,93145:1_merged_999963,
43.826381,2,3075,-79.033125,,,,,Lake Driveway Southbound @ Vale,0,3075:1,
43.830755,2,2276,-79.016374,,,,,Westney Eastbound @ Harwood,0,2276:1,
43.87443,2,1014,-78.863301,,,,,Malaga Eastbound @ Park,0,1014:1,
43.9107906,2,93730,-78.72386,,,,,Durham Highway 2 Westbound @ Maple Grove,0,937301,
43.909431,1,566,-78.896541,,,,,Rossland Eastbound @ Waverly,0,566:1,
43.856592,1,961,-78.863184,,,,,Renaissance Eastbound @ Connery,0,961:1,
43.831109,1,2083,-79.014812,,,,,Harwood Southbound @ Westney,0,2083:1,
43.8576991,1,2236,-79.0409645,,,,,Kingston Eastbound @ Westney,0,2236:1,
43.834988,1,2081,-79.015122,,,,,Harwood Southbound @ Clements,0,2081:1,
43.885866,1,539,-78.890887,,,,,Thornton Northbound @ Donegal,0,539:1,
43.906406,1,1200,-78.813775,,,,,King Eastbound @ Townline,0,1200:1,
43.907393,1,1225,-78.803827,,,,,Highway 2 Eastbound @ Old Kingston,0,1225:1,
43.917545,1,868,-78.861715,,,,,Ritson Southbound @ Rossland,0,868:1,
43.932287,1,90083,-78.857147,,,,,Wilson Southbound @ Beatrice,0,90083:1,
43.9121115,2,93721,-78.777044,,,,,Durham Highway 2 @ Courtice Road,0,937211,
43.836906,1,1960,-79.078013,,,,,Pickering Parkway Eastbound @ Valley Farm,0,1960:1,
43.9029456,1,93305,-78.790222,,,,,Sandringham Eastbound @ Yorkville,0,93305:1,
43.90560521,1,1197,-78.823016,,,,,King Eastbound @ Grandview,0,1197:1,
43.836801,2,3096,-79.022498,,,,,Northbound @ 574 Monarch,0,3096:1,
43.893594,2,93345,-78.806799,,,,,Glenabbey Eastbound @ Townline,0,93345:1,
43.893866,1,1259,-78.836928,,,,,Olive Westbound @ Baldwin,0,1259:1,
43.896487,1,93343,-78.798938,,,,,Glenabbey Eastbound @ Robert Adams,0,93343:1,
43.845921,1,1863,-79.084151,,,,,Southbound @ 1972 Valley Farm,0,1863:1,
43.82876,2,1719,-79.065535,,,,,Brock Road Northbound @ Quigley,0,1719:1,
43.95386,2,3630,-78.95961,,,,,Winchester Eastbound @ Chelmsford,0,36301,
43.908217,2,2705,-78.986958,,,,,Taunton Eastbound @ Coronation,0,2705:1,
43.87933,2,3113,-78.82801,,,,,Colonel Sam Westbound @ Farewell,0,3113:1,
43.906125,1,1199,-78.816804,,,,,King Eastbound @ Eastlawn,0,1199:1,
43.864934,1,997,-78.852459,,,,,Oxford Northbound @ Venus,0,997:1,
43.934956,1,644,-78.83658,,,,,Grandview Northbound @ Summitview (North stop),0,644:1,
43.835759,1,1911,-79.082959,,,,,Northbound @ 1869 Glenanna,0,1911:1,
43.8317563,2,2092,-79.0021836,,,,,Pickering Beach Northbound @ Rollo (South stop),0,2092:1,
43.9054377,2,93732,-78.70954,,,,,Clarington Blvd Westbound @ Green Road,0,937321,
43.905223,1,3172,-78.710404,,,,,Green Southbound @ Boswell,0,3172:1,
43.85056,2,93122,-79.02586,,,,,Station Westbound @ Mills,0,93122:1,
43.895256,2,93714,-78.85178,,,,,Ritson Southbound @ Eulalie,0,937141,
43.82257,1,1521,-79.149972,,,,,Pine Grove Southbound @ Valley Ridge,0,1521:1,
43.952855,2,705,-78.89823,,,,,Simcoe Northbound @ Northern Dancer,0,705:1,
43.820255,1,1523,-79.150888,,,,,Valley Ridge Southbound @ Thicket,0,1523:1,
43.955816,2,93353,-78.86148,,,,,Conlin Westbound @ Riverton,0,93353:1,
43.874044,2,93257,-78.885968,,,,,Champlain Westbound @ Thornton,0,93257:1,
43.792626,1,93259,-79.163294,,,,,Ellesmere Westbound @ Meadowvale,0,93259:1,
44.10305,2,93094,-78.99349,,,,,Reach Eastbound @ Highway 7/12,0,93094:1,
43.796344,2,93987,-79.227343,,,,,Sheppard Westbound @ Washburn Way,0,939871,
43.8680098,1,330,-78.929162,,,,,Consumers Eastbound @ Garden,0,330:1,
43.8289,1,2024,-79.032247,,,,,Lake Driveway Eastbound @ Walker,0,2024:1,
43.922073,2,188,-78.960088,,,,,Baldwin Northbound @ Robert Attersley,0,188:1,
43.8469093,1,2331,-79.0381401,,,,,Fairall Eastbound @ Westney (East side stop),0,2331:1,
43.844067,1,1751,-79.126966,,,,,Whites Southbound @ Sunbird Trail,0,1751:1,
43.899535,2,93521,-78.883283,,,,,Adelaide Westbound @ Fernhill,0,935211,
43.907681,1,1139,-78.835475,,,,,Harmony Northbound @ Regent,0,1139:1,
43.90541,1,1137,-78.829896,,,,,King Westbound @ Melrose,0,1137:1,
43.868802,1,332,-78.924038,,,,,Consumers Eastbound @ Cannon,0,332:1,
43.943242,1,93359,-78.86174,,,,,Wilson Northbound @ Clearsky,0,93359:1,
43.8488203,1,2333,-79.0293951,,,,,Fairall Eastbound @ Dowty,0,2333:1,
43.826304,1,1757,-79.118976,,,,,Whites Southbound @ Bayfield,0,1757:1,
43.847733,1,1792,-79.085486,,,,,Finch Westbound @ Valley Farm,0,1792:1,
43.839284,1,93420,-79.124213,,,,,Finch Westbound @ Whites,0,93420:1,
43.846555,1,93596,-79.02766,,,,,Southbound @ 160 Dowty,0,935961,
43.91836021,1,2713,-78.944325,,,,,Taunton Westbound @ Fallingbrook,0,2713:1,
43.929238,2,713,-78.877548,,,,,Simcoe Southbound @ Orchard View,0,713:1,
43.8504078,1,1790,-79.0700786,,,,,Kingston Eastbound @ Bainbridge,0,1790:1,
43.944385,1,93426,-78.872175,,,,,Coldstream Eastbound @ Ritson,0,93426:1,
43.83537,2,2323,-79.0576,,,,,Bayly Westbound @ Squires Beach,0,2323:1,
43.883063,2,3109,-78.84632,,,,,Ritson Southbound @ Bloor,0,3109:1,
43.899581,1,480,-78.940539,,,,,Rossland Eastbound @ Garden (Durham Region Headquarters),0,480:1,
43.904563,1,1232,-78.785437,,,,,Northbound @ 2501 Trulls,0,1232:1,
43.953015,2,94050,-78.877242,,,,,Ritson Southbound @ Maine,0,940501,
43.94436,1,94105,-78.95963,,,,,Baldwin-Highway 407 Park and Ride,0,941051,
43.923364,1,866,-78.864075,,,,,Ritson Southbound @ Wildflower,0,866:1,
43.896874,1,180,-78.949308,,,,,Brock Street Northbound @ Rossland,0,180:1,
43.826169,2,1745,-79.118693,,,,,Whites Northbound @ Briar Wood,0,1745:1,
43.871596,1,336,-78.9098154,,,,,Eastbound @ 23 Consumers,0,336:1,
43.90300993,1,1234,-78.790682,,,,,Sandringham Westbound @ Yorkville,0,1234:1,
43.88834,1,93183,-78.844227,,,,,Dean Westbound @ Normandy,0,93183:1,
43.903112,2,182,-78.95233,,,,,Brock Street Northbound @ Dryden,0,182:1,
43.833399,1,1747,-79.121756,,,,,Whites Northbound @ New,0,1747:1,
43.902369,1,719,-78.870727,,,,,Adelaide Eastbound @ Kaiser,0,719:1,
43.906341,1,93185,-78.921216,,,,,Northbound @ 3193 Thickson,0,93185:1,
43.962238,2,94112,-78.967677,,,,,Carnwith Eastbound @ Montgomery,0,941121,
43.823774,1,2022,-79.034075,,,,,Lake Driveway Northbound @ Hawkins,0,2022:1,
43.892717,1,92064,-79.028741,,,,,Salem Southbound @ Williamson,0,92064:1,
43.88767,1,1068,-78.810582,,,,,Grandview Southbound @ Downview,0,1068:1,
43.922588,2,3342,-78.852865,,,,,Wilson Southbound @ Terrace,0,3342:1,
43.875698,2,3565,-78.841968,,,,,Wentworth Westbound @ Ritson,0,3565:1,
43.889924,2,94061,-78.971264,,,,,McQuay Eastbound @ Jacob,0,940611,
43.903236,1,720,-78.866944,,,,,Adelaide Eastbound @ Simcoe,0,720:1,
43.843819,1,1966,-79.065034,,,,,Pickering Parkway Eastbound @ Beechlawn,0,1966:1,
43.905681,1,722,-78.859663,,,,,Adelaide Eastbound @ Division,0,722:1,
43.897731,1,2400,-79.0312632,,,,,Taunton Eastbound @ Salem,0,2400:1,
43.9545412,2,3579,-78.9057703,,,,,Britannia Eastbound @ Kentucky Derby,0,3579:1,
43.8946592,1,179,-78.9483474,,,,,Brock Street Northbound @ Wallace,0,179:1,
43.899925,1,1187,-78.853177,,,,,King Eastbound @ Rowe,0,1187:1,
43.88431645,1,93247,-78.90604,,,,,Nichol Eastbound @ Springwood,0,93247:1,
43.864386,1,2149,-79.026404,,,,,Harwood Southbound @ Chapman,0,2149:1,
43.81332,1,1616,-79.123324,,,,,Kingston Westbound @ Rosebank,0,1616:1,
43.898339,2,1185,-78.860061,,,,,King Eastbound @ Mary,0,1185:1,
44.104907,1,2428,-79.113612,,,,,Reach Eastbound @ East,0,2428:1,
44.112316,2,2454,-78.951684,,,,,Reach Westbound @ Simcoe,0,2454:1,
43.9039406,2,3115,-78.8557913,,,,,Southbound @ 206 Ritson,0,3115:1,
43.843305,1,93193,-79.073586,,,,,Pickering Parkway Westbound @ Denmar,0,93193:1,
43.979501,2,2456,-78.910012,,,,,Simcoe Northbound @ Steepleview (Columbus),0,2456:1,
43.85004333,1,93191,-79.07550837,,,,,Brock Road Southbound @ Finch,0,93191:1,
43.878204,2,3567,-78.853061,,,,,Simcoe Southbound @ Erie,0,3567:1,
43.915191,1,882,-78.860494,,,,,Ritson Northbound @ Oshawa Boulevard (South stop),0,882:1,
43.87033,1,2147,-79.024269,,,,,Harwood Southbound @ Kerrison,0,2147:1,
43.93034,1,93041,-78.962752,,,,,Baldwin Northbound @ Canary,0,93041:1,
43.919499,1,884,-78.862175,,,,,Ritson Northbound @ Tulip,0,884:1,
43.89199751,1,93055,-79.05006017,,,,,Westney Southbound @ Taunton,0,93055:1,
43.824718,2,93501,-79.053242,,,,,Squires Beach Southbound @ Clements,0,93501:1,
43.85673,1,3585,-78.94298,,,,,Southbound @ 300 Gordon (Lakeridge Health Whitby),0,35851,
43.874698,1,1003,-78.862502,,,,,Malaga Westbound @ Park,0,1003:1,
43.9569741,1,512,-78.9653316,,,,,Vipond Eastbound @ Montgomery,0,512:1,
43.895268,1,1171,-78.878156,,,,,Bond Westbound @ Gibbons,0,1171:1,
43.86729177,1,262,-78.900295,,,,,Westbound @ 1716 Victoria,0,262:1,
43.893348,1,1177,-78.88199,,,,,King Eastbound @ Stevenson,0,1177:1,
43.854752,1,2155,-79.022922,,,,,Harwood Northbound @ Oak,0,2155:1,
43.88225,1,431,-78.931069,,,,,Dundas Eastbound @ Lupin,0,431:1,
43.815805,2,1664,-79.103394,,,,,West Shore Southbound @ Breezy,0,1664:1,
43.858455,1,2157,-79.024518,,,,,Harwood Northbound @ Mandrake,0,2157:1,
43.870936,2,3432,-79.068386,,,,,Rossland Westbound @ Shell,0,3432:1,
43.870202,2,3434,-79.07128,,,,,Rossland Eastbound @ Stannardville,0,3434:1,
43.88507983,1,2141,-79.032344,,,,,Harwood Southbound @ Woodcock,0,2141:1,
43.9550968,1,514,-78.9735875,,,,,Vipond Eastbound @ Sabrina,0,514:1,
43.8908141,1,93492,-78.8064094,,,,,Townline Northbound @ Bloor (South side stop),0,93492:1,
43.884079,2,173,-78.943797,,,,,Brock Street Northbound @ Walnut,0,173:1,
43.915083,1,869,-78.860639,,,,,Ritson Southbound @ Oshawa Boulevard (South stop),0,869:1,
43.880664,2,427,-78.938157,,,,,Dundas Eastbound @ Hickory,0,427:1,
43.89248,1,1300,-78.842598,,,,,Olive Eastbound @ Lasalle,0,1300:1,
43.844825,1,94095,-79.094491,,,,,Liverpool Southbound @ Finch,0,940951,
43.794213,2,93989,-79.234918,,,,,Progress Southbound @ Sheppard,0,939891,
43.908273,2,93720,-78.706862,,,,,Clarington Northbound @ Prince William,0,937201,
43.8797255,2,425,-78.9424105,,,,,Dundas Eastbound @ Brock Street,0,425:1,
43.838509,1,1920,-79.093254,,,,,Glenanna Westbound @ Glendale,0,1920:1,
43.8985764,2,1165,-78.8638232,,,,,Bond Westbound @ Simcoe,0,1165:1,
43.9177648,1,90088,-78.9471226,,,,,Taunton Westbound @ Garden (East side stop),0,90088:1,
43.929724,1,863,-78.866915,,,,,Ritson Southbound @ Beatrice,0,863:1,
43.8971812,2,1167,-78.8700233,,,,,Bond Westbound @ Arena,0,1167:1,
43.9451727,1,90051,-78.8686743,,,,,Coldstream Eastbound @ Whitestone,0,90051:1,
43.925248,1,835,-78.912558,,,,,Eastbound @ 899 Taunton,0,835:1,
44.099892,2,2512,-78.944804,,,,,Scugog Eastbound @ Simcoe,0,2512:1,
43.871258,1,1019,-78.854967,,,,,Glen Southbound @ Porter,0,1019:1,
43.9549931281,2,3631,-78.9545788076,,,,,Winchester Eastbound @ Simcoe,0,36311,
44.107457,2,2514,-78.948792,,,,,Simcoe Northbound @ Balsam,0,2514:1,
43.7866837,1,9473,-79.188152,,,,,Ellesmere Westbound @ Military Trail,0,9473:1,
43.884355,1,1283,-78.887447,,,,,Gibb Eastbound @ Vancouver,0,1283:1,
43.879703,2,171,-78.942101,,,,,Brock Street Northbound @ Dundas,0,171:1,
43.904153,1,1194,-78.834637,,,,,King Eastbound @ Harmony,0,1194:1,
43.885932,1,1285,-78.880513,,,,,Gibb Eastbound @ Stevenson (West side stop),0,1285:1,
43.8666738,1,93150,-79.0171273,,,,,Salem Northbound @ Ringer,0,93150:1,
43.9109185,2,93733,-78.702306,,,,,Durham Highway 2 Eastbound @ Bowmanville Ave,0,937331,
43.9461252,1,90080,-78.844471,,,,,Eastbound @ 1321 Coldstream,0,90080:1,
43.89786363,2,93534,-78.794723,,,,,Glenabbey Westbound @ Prestonvale,0,93534:1,
43.891023,2,93715,-78.849841,,,,,Ritson Southbound @ Olive,0,937151,
43.892222,1,93346,-78.807249,,,,,Townline Southbound @ Bloor (North side stop),0,93346:1,
43.819466,1,93509,-79.072332,,,,,Sandy Beach Northbound @ Parkham,0,93509:1,
43.883495,1,93249,-78.91435,,,,,Southbound @ 164 Glen Hill,0,932491,
43.953127,2,491,-78.962199,,,,,Baldwin Northbound @ Winchester,0,491:1,
43.89543,1,93344,-78.801268,,,,,Glenabbey Eastbound @ Auburn,0,93344:1,
43.890577,1,93160,-79.027818,,,,,Southbound @ 1508 Salem,0,93160:1,
43.850484,1,93158,-78.989691,,,,,Bayly Westbound @ Audley,0,93158:1,
43.905525,1,1195,-78.828657,,,,,King Eastbound @ Melrose,0,1195:1,
43.922083,1,589,-78.85358,,,,,Terrace Westbound @ Canonberry,0,589:1,
43.847892,1,2312,-79.00124,,,,,Bayly Westbound @ Boone,0,2312:1,
43.84355324,1,2096,-79.006018,,,,,Pickering Beach Northbound @ Greenhalf,0,2096:1,
43.920769,1,587,-78.846996,,,,,Rossland Westbound @ Attersley,0,587:1,
43.832884,1,1766,-79.068809,,,,,Bayly Westbound @ Brock Road,0,1766:1,
43.825588,2,93498,-79.060628,,,,,Eastbound @ 1845 Clements,0,93498:1,
43.830365,1,2029,-79.003947,,,,,Clover Ridge Southbound @ Bryant,0,2029:1,
43.801976,2,93979,-79.200526,,,,,Sheppard Westbound @ Morningside,0,939791,
44.09201925,1,2745,-78.94179818,,,,,Simcoe Southbound @ Greenway,0,2745:1,
43.83755071,1,2324,-79.04777984,,,,,Bayly Westbound @ Church,0,2324:1,
43.822599,1,93421,-79.138737,,,,,Altona Northbound @ Strouds,0,93421:1,
43.9430838868,2,706,-78.8891914227,,,,,Simcoe Southbound @ Niagara (North stop),0,706:1,
43.8997438,2,2708,-79.0239972,,,,,Taunton Westbound @ Gillett,0,2708:1,
43.9108,2,682,-78.869386,,,,,Simcoe Northbound @ Hillcroft,0,682:1,
43.877982,2,93597,-78.832502,,,,,Wentworth Eastbound @ Wilson,0,935971,
43.956651,2,497,-78.946403,,,,,Winchester Eastbound @ Anderson,0,497:1,
43.860264,1,1854,-79.089584,,,,,Dellbrook Westbound @ Major Oaks,0,1854:1,
43.830727,1,1760,-79.077511,,,,,Bayly Eastbound @ Sandy Beach,0,1760:1,
43.858381,1,93435,-79.08071,,,,,Dellbrook Eastbound @ Melman,0,93435:1,
43.958227,2,3617,-78.943705,,,,,Thickson Northbound @ Winchester,0,36171,
43.899015,2,94099,-78.885722,,,,,Adelaide Westbound @ Stevenson,0,940991,
44.094297,1,2743,-78.947064,,,,,Union Northbound @ Major,0,2743:1,
43.826196,1,2058,-79.01322,,,,,Clover Ridge Westbound @ Harwood,0,2058:1,
43.956148,2,94051,-78.878843,,,,,Britannia Eastbound @ Ritson,0,940511,
43.8417042,1,1752,-79.1258657,,,,,Whites Southbound @ Amaretto,0,1752:1,
44.104497,1,2431,-79.108006,,,,,Reach Northbound @ Coral Creek,0,2431:1,
44.111683,2,2753,-78.954558,,,,,Reach Eastbound @ Carlan,0,2753:1,
43.963248,2,3633,-78.902719,,,,,Simcoe Northbound @ Windfields Farm,0,36331,
43.95653,2,3537,-78.89647,,,,,Britannia Westbound @ Steeplechase,0,3537:1,
43.841554,2,1750,-79.125589,,,,,Whites Northbound @ Amaretto,0,1750:1,
43.907163,1,1223,-78.807587,,,,,Highway 2 Westbound @ Varcoe,0,1223:1,
43.826225,1,2023,-79.032934,,,,,Lake Driveway Northbound @ Kipling,0,2023:1,
43.927623,1,833,-78.902849,,,,,Taunton Westbound @ Keith Ross,0,833:1,
43.934519803,2,3531,-78.8724287121,,,,,Taunton Westbound @ Mary,0,3531:1,
43.80027,2,94019,-79.20723,,,,,Sheppard Eastbound @ Breckon,0,940191,
43.904922,1,485,-78.916718,,,,,Rossland Eastbound @ Canadian Oaks,0,485:1,
43.915011,1,597,-78.871918,,,,,Rossland Westbound @ Simcoe,0,597:1,
43.906151,2,487,-78.911489,,,,,Rossland Eastbound @ Garrard,0,487:1,
43.9112,2,94042,-78.788622,,,,,Trulls Southbound @ Durham Highway 2,0,940421,
43.916682,1,595,-78.864393,,,,,Rossland Westbound @ Oshawa Boulevard,0,595:1,
43.885282,1,1084,-78.83441,,,,,Bloor Westbound @ Holland,0,1084:1,
43.846722,1,2326,-79.023348,,,,,Hunt Westbound @ Mills,0,2326:1,
43.962107,2,94111,-78.972338,,,,,Carnwith Eastbound @ Bayern,0,941111,
43.83159,1,1768,-79.074425,,,,,Bayly Westbound @ Alliance,0,1768:1,
43.917352,1,295,-78.915388,,,,,Garrard Southbound @ Dryden,0,295:1,
43.956586,2,3605,-78.913582,,,,,Windfields Farm Southbound @ Dress Circle,0,3605:1,
43.934373,1,861,-78.868973,,,,,Ritson Southbound @ Taunton,0,861:1,
43.834673,2,3058,-79.003576,,,,,Southbound @ 722 Pickering Beach,0,3058:1,
43.963141,2,3603,-78.904278,,,,,Windfields Farm Westbound @ Thoroughbred,0,3603:1,
43.9190034,1,90065,-78.8512777,,,,,Wilson Northbound @ Rossland,0,90065:1,
43.903403,1,1231,-78.784876,,,,,Trulls Northbound @ Avondale,0,1231:1,
43.889836,2,2257,-79.048786,,,,,Northbound @ 1753 Westney,0,2257:1,
43.8241985,1,1758,-79.1180706,,,,,Southbound @ 1690 Whites,0,1758:1,
43.910554,2,1430,-78.680784,,,,,King Westbound @ Liberty,0,1430:1,
43.891187,1,1299,-78.848202,,,,,Olive Eastbound @ Oshawa Boulevard,0,1299:1,
43.915302,1,90063,-78.849728,,,,,Wilson Northbound @ Cavendish,0,90063:1,
43.9059139,1,1233,-78.7878167,,,,,Sandringham Westbound @ Bushford,0,1233:1,
43.923205,1,293,-78.917972,,,,,Garrard Southbound @ Griffen,0,293:1,
43.909692,1,1436,-78.71688,,,,,Highway 2 Westbound @ Boswell,0,1436:1,
43.81854417,1,93217,-79.115326,,,,,Whites Northbound @ Kingston,0,93217:1,
43.837903,1,1928,-79.111643,,,,,Glenanna Eastbound @ Eagleview,0,1928:1,
43.905856,1,1196,-78.82687,,,,,King Eastbound @ Keewatin,0,1196:1,
43.903729,1,283,-78.920065,,,,,Thickson Northbound @ Rossland,0,283:1,
43.86147716,1,43,-78.938856,,,,,Victoria Westbound @ Henry,0,43:1,
43.899509,1,281,-78.918233,,,,,Thickson Northbound @ Canadian Oaks,0,281:1,
43.88768,2,93188,-78.891874,,,,,Thornton Southbound @ Arklow,0,93188:1,
43.88526,2,2247,-79.047031,,,,,Westney Southbound @ Williamson,0,2247:1,
43.81194,1,93219,-79.1119982,,,,,Oklahoma Westbound @ Whites,0,93219:1,
43.884465,2,2178,-79.007121,,,,,Rossland Westbound @ Hilton,0,2178:1,
43.827964,2,2298,-79.086894,,,,,Liverpool Northbound @ Bayly,0,2298:1,
43.8723866,1,321,-78.9078341,,,,,Consumers Westbound @ Thickson,0,321:1,
43.887606,1,2176,-78.993369,,,,,Rossland Westbound @ Lake Ridge,0,2176:1,
44.102279,1,2491,-78.938356,,,,,Curts Eastbound @ Port Perry Terminal,0,2491:1,
43.908962,1,1140,-78.836021,,,,,Harmony Northbound @ Eastbourne,0,1140:1,
43.939344,1,823,-78.850735,,,,,Taunton Westbound @ Harmony,0,823:1,
43.867723,1,2148,-79.02528,,,,,Harwood Southbound @ Ringer,0,2148:1,
43.928913,1,889,-78.866347,,,,,Ritson Northbound @ Beatrice (South stop),0,889:1,
43.90479976,1,93306,-78.788302,,,,,Sandringham Northbound @ Hillhurst,0,93306:1,
43.846159,1,2314,-79.009124,,,,,Bayly Westbound @ Porte,0,2314:1,
43.94630488,1,90079,-78.844289,,,,,Westbound @ 1340 Coldstream,0,90079:1,
43.872596,1,2259,-79.041717,,,,,Westney Southbound @ Coughlen,0,2259:1,
43.884808,1,2142,-79.030202,,,,,Southbound @ 1370 Harwood,0,2142:1,
43.909001,1,1146,-78.836235,,,,,Harmony Southbound @ Eastbourne,0,1146:1,
43.886603,2,2140,-79.036797,,,,,Southbound @ 1532 Harwood,0,2140:1,
43.913421,1,881,-78.859726,,,,,Ritson Northbound @ Hillcroft,0,881:1,
43.8940618,1,1178,-78.8787275,,,,,King Eastbound @ Gibbons,0,1178:1,
43.8607027,1,1852,-79.0856358,,,,,Dellbrook Westbound @ Blue Ridge (East stop),0,1852:1,
43.93202615,1,829,-78.883392,,,,,Taunton Westbound @ Somerville,0,829:1,
43.944835,1,90042,-78.856035,,,,,Coldstream Westbound @ Pennel,0,90042:1,
43.917753,1,883,-78.861499,,,,,Ritson Northbound @ Rossland,0,883:1,
43.96306,1,3546,-78.9646,,,,,Carnwith Westbound @ Way,0,3546:1,
43.9668,2,3548,-78.95911,,,,,Carnwith Westbound @ Baldwin,0,3548:1,
43.8836627,1,104,-78.9673866,,,,,McQuay Northbound @ Bonacord,0,104:1,
43.818769,2,93504,-79.057412,,,,,Southbound @ 770 McKay,0,93504:1,
43.8333729,1,92047,-79.0269981,,,,,Clements Westbound @ Finley,0,92047:1,
43.884171,2,434,-78.922742,,,,,Dundas Eastbound @ Hopkins,0,434:1,
43.8748675,1,1053,-78.8787787,,,,,Eastbound @ 555 Bloor,0,1053:1,
43.89388328,1,1172,-78.884232,,,,,Bond Westbound @ Stevenson,0,1172:1,
43.851412,2,2352,-79.021846,,,,,Station Eastbound @ Harwood,0,2352:1,
43.889739,2,2245,-79.048878,,,,,Southbound @ 1750 Westney,0,2245:1,
43.85314,2,3265,-79.009521,,,,,Salem Northbound @ Achilles,0,3265:1,
43.9442523,2,697,-78.8905194,,,,,Simcoe Northbound @ Taylorwood,0,697:1,
43.9133221,2,93723,-78.770601,,,,,Durham Highway 2 Eastbound @ Hancock,0,937231,
43.856405,1,985,-78.855793,,,,,Lakeview Westbound @ Park,0,985:1,
43.80878135,1,1544,-79.132761,,,,,Altona Southbound @ Kingston,0,1544:1,
43.878759,1,92041,-79.032102,,,,,Rossland Westbound @ Woodcock,0,92041:1,
43.8634084,1,1591,-79.0168413,,,,,Kingston Westbound @ Salem,0,1591:1,
44.09453,1,2734,-78.942667,,,,,Simcoe Northbound @ Vanedward,0,2734:1,
44.099916,2,2503,-78.945102,,,,,Scugog  Westbound @ Simcoe,0,2503:1,
43.917332,1,576,-78.860711,,,,,Rossland Eastbound @ Ritson,0,576:1,
43.884493,1,1282,-78.887244,,,,,Gibb Westbound @ Vancouver,0,1282:1,
43.895486,2,3636,-78.830067,,,,,Harmony Southbound @ Olive,0,36361,
44.086558,2,2477,-78.955069,,,,,Old Simcoe Southbound @ Barber,0,2477:1,
43.869007,2,166,-78.937411,,,,,Brock Street Northbound @ Arthur,0,166:1,
43.882233,2,210,-78.94316,,,,,Brock Street Southbound @ Mary,0,210:1,
43.836339,1,1925,-79.106203,,,,,Glenanna Westbound @ Heathside,0,1925:1,
43.87028394,1,999,-78.854489,,,,,Glen Northbound @ Porter,0,999:1,
43.887267,1,1288,-78.874165,,,,,Gibb Eastbound @ Grenfell,0,1288:1,
44.09877,1,2505,-78.950789,,,,,Scugog Westbound @ Ottawa,0,2505:1,
43.813513,1,1542,-79.134657,,,,,Altona Southbound @ Fiddlers,0,1542:1,
43.933738,1,691,-78.879102,,,,,Simcoe Northbound @ Taunton (North side stop),0,691:1,
43.840676,1,3056,-79.006118,,,,,Pickering Beach Southbound @ Emperor,0,3056:1,
43.837897,1,1927,-79.112257,,,,,Glenanna Westbound @ Fairport,0,1927:1,
44.09931,2,2511,-78.947712,,,,,Scugog Eastbound @ Arrow,0,2511:1,
43.8495633,2,3060,-78.9927232,,,,,Eastbound @ 509 Bayly,0,3060:1,
43.8495632,1,93159,-78.9937104,,,,,Westbound @ 508 Bayly,0,93159:1,
43.873682,2,93749,-78.970969,,,,,Dundas Westbound @ Des Newman,0,937491,
43.912237,1,570,-78.883718,,,,,Rossland Eastbound @ Park,0,570:1,
43.886613,1,451,-78.911815,,,,,Dundas Eastbound @ Thickson,0,451:1,
43.8617546,2,93463,-78.8863301,,,,,Wentworth Eastbound @ Boundary,0,93463:1,
43.821218,1,1689,-79.105446,,,,,Bayly Eastbound @ West Shore,0,1689:1,
44.018378,2,2465,-78.925944,,,,,Simcoe Southbound @ Raglan Road (Raglan),0,2465:1,
43.862572,1,993,-78.853591,,,,,Oxford Southbound @ Dwight,0,993:1,
43.905041,1,457,-78.916926,,,,,Rossland Westbound @ Fencerow,0,457:1,
43.879619,1,94085,-79.088856,,,,,Zents Westbound @ Brock Road,0,940851,
43.8527521968,2,3266,-79.0096184093,,,,,Salem Southbound @ Achilles,0,3266:1,
43.834733,1,2055,-79.021721,,,,,Monarch Southbound @ Clements,0,20551,
44.049755,2,2467,-78.924116,,,,,Simcoe Southbound @ Shirley (Shirley Road Commuter Parking),0,2467:1,
43.885952,1,1280,-78.880912,,,,,Gibb Westbound @ Stevenson (West side stop),0,1280:1,
43.902804,1,459,-78.927091,,,,,Rossland Westbound @ Doulton,0,459:1,
43.885687,1,445,-78.903753,,,,,Nichol Westbound @ Kirby,0,445:1,
43.882875,1,447,-78.909845,,,,,Nichol Westbound @ Jubilee,0,447:1,
43.945257,1,910,-78.868727,,,,,Coldstream Westbound @ Northfield,0,910:1,
43.830614,2,1720,-79.066323,,,,,Brock Road Northbound @ Orangebrook,0,1720:1,
43.783526,2,94007,-79.231618,,,,,Progress Northbound @ Centennial College,0,940071,
43.929548,1,1371,-78.869207,,,,,Beatrice Westbound @ Sycamore,0,1371:1,
43.878878,2,400,-78.946685,,,,,Dundas Westbound @ Euclid,0,400:1,
43.925811,1,687,-78.875722,,,,,Simcoe Northbound @ Beatrice,0,687:1,
43.824595,2,1712,-79.053029,,,,,Northbound @ 1111 Squires Beach,0,1712:1,
43.901355,1,93536,-78.792329,,,,,Glenabbey Southbound @ Oke,0,93536:1,
43.92879302,1,832,-78.89779906,,,,,Taunton Westbound @ Stevenson,0,832:1,
43.921189,2,685,-78.873688,,,,,Simcoe Northbound @ Switzer,0,685:1,
43.820715,2,1710,-79.055269,,,,,McKay Eastbound @ Squires Beach,0,1710:1,
43.884288,1,275,-78.911801,,,,,Northbound @ 35 Thickson,0,275:1,
43.921583,2,584,-78.841479,,,,,Harmony Northbound @ Rossland (South side stop),0,584:1,
43.843753,2,93943,-79.083086,,,,,Valley Farm Northbound @ Kingston,0,939431,
43.829995,2,1695,-79.080998,,,,,Bayly Eastbound @ Krosno,0,1695:1,
43.921478,1,586,-78.843935,,,,,Rossland Westbound @ Gladfern,0,586:1,
43.813024,1,1687,-79.106715,,,,,Oklahoma Westbound @ Hillcrest,0,1687:1,
43.92843734,1,838,-78.89858982,,,,,Taunton Eastbound @ Airport,0,838:1,
43.935787,1,844,-78.865706,,,,,Taunton Eastbound @ Naples,0,844:1,
43.8816337,1,1059,-78.8499396,,,,,Bloor Eastbound @ Merritt,0,1059:1,
43.854027,1,2266,-79.041345,,,,,Westney Southbound @ Bramwell,0,2266:1,
43.828459,1,1782,-79.098733,,,,,Kingston Eastbound @ Dixie,0,1782:1,
43.911481,2,1431,-78.68621,,,,,King Westbound @ George,0,1431:1,
43.816874,1,2725,-79.148704,,,,,Hogarth Eastbound @ Pine Grove,0,2725:1,
43.87387648,1,93016,-79.05380546,,,,,Rossland Westbound @ Ravenscroft,0,93016:1,
43.8960969948,2,474,-78.9561312664,,,,,Rossland Eastbound @ Redoak,0,474:1,
43.846645,1,2073,-79.019272,,,,,Harwood Northbound @ Kings Crescent (South stop),0,2073:1,
43.888306,2,3263,-78.841289,,,,,Dean Northbound @ Sedan,0,3263:1,
43.86266,2,269,-78.902289,,,,,Thickson Northbound @ Tricont,0,269:1,
43.897253,1,476,-78.950126,,,,,Rossland Eastbound @ Brock Street,0,476:1,
43.93301,2,3534,-78.87799,,,,,Taunton Eastbound @ Simcoe,0,3534:1,
43.875049,1,406,-78.963955,,,,,Dundas Westbound @ White Oaks,0,406:1,
43.920052,1,93327,-78.781676,,,,,Courtice Southbound @ George Reynolds,0,93327:1,
43.8698042,1,2260,-79.0405419,,,,,Westney Southbound @ Ivers,0,2260:1,
43.874489,1,3368,-79.085714,,,,,Brock Road Southbound @ Dersan,0,3368:1,
43.931005,1,830,-78.887894,,,,,Taunton Westbound @ Patton,0,830:1,
43.8769684,1,2252,-79.0432136,,,,,Westney Northbound @ Rossland,0,2252:1,
43.920216,1,93329,-78.787834,,,,,George Reynolds Eastbound @ Sleeman,0,93329:1,
43.913138,2,1480,-78.688545,,,,,Church Eastbound @ Temperance,0,1480:1,
43.82116,2,2061,-79.014541,,,,,Clover Ridge Southbound @ Lake Driveway,0,2061:1,
44.08454,2,2739,-78.951118,,,,,King Westbound @ Union,0,2739:1,
43.920439,1,90066,-78.851912,,,,,Wilson Southbound @ Rossland,0,90066:1,
43.877313,1,2250,-79.043719,,,,,Westney Southbound @ Rossland (North side stop),0,2250:1,
43.88665,2,94070,-78.8479,,,,,Ritson Southbound @ McNaughton,0,940701,
43.883745,1,666,-78.857382,,,,,Simcoe Southbound @ First,0,666:1,
43.871325,2,92015,-79.061348,,,,,Eastbound @ 575 Rossland,0,92015:1,
43.89046,2,1265,-78.851768,,,,,Olive Westbound @ Drew,0,1265:1,
43.822912,1,2063,-79.01264,,,,,Harwood Northbound @ McRae,0,2063:1,
43.876133,1,93143,-79.044178,,,,,Rossland Westbound @ Westney,0,93143:1,
43.915645,1,90064,-78.849962,,,,,Wilson Southbound @ Oakwood,0,90064:1,
43.873877,1,92017,-79.053354,,,,,Rossland Eastbound @ Ravenscroft,0,92017:1,
43.891779,1,1263,-78.846057,,,,,Olive Westbound @ Verdun,0,1263:1,
43.96031,2,3604,-78.914539,,,,,Windfields Farm Southbound @ Stallion,0,3604:1,
43.83272,1,94125,-79.08561,,,,,Pickering Parkway Terminal Platform B13,0,941251,
43.8314931,1,93214,-79.121269,,,,,Southbound @ 1852 Whites,0,93214:1,
43.909304,1,3279,-78.674384,,,,,Prince Eastbound @ Simpson,0,3279:1,
43.885292,1,2138,-79.032422,,,,,Harwood Westbound @ Woodcock,0,2138:1,
43.912962,1,1433,-78.695055,,,,,King Westbound @ Roenigk,0,1433:1,
43.831646,1,3059,-79.002282,,,,,Pickering Beach Southbound @ Rollo,0,3059:1,
43.846828,1,2268,-79.03957,,,,,Westney Southbound @ Fairall,0,2268:1,
43.86358,1,93151,-79.016129,,,,,Salem Southbound @ Kingston,0,93151:1,
43.828548,2,3083,-79.014208,,,,,Harwood Southbound @ Windebanks,0,3083:1,
43.88109588,2,668,-78.855995,,,,,Simcoe Northbound @ Bloor,0,668:1,
43.837528,1,2069,-79.01542,,,,,Harwood Northbound @ Emperor (Lakeridge Health Ajax Pickering),0,2069:1,
43.855299,1,960,-78.86589,,,,,Renaissance Eastbound @ O'Hara,0,960:1,
43.8271,2,3085,-79.00769,,,,,Clover Ridge Eastbound @ Crawford,0,3085:1,
43.87519152,1,2258,-79.042872,,,,,Westney Southbound @ Rossland (South side stop),0,2258:1,
43.8854908,1,958,-78.880117,,,,,Stevenson Southbound @ Gibb,0,958:1,
44.09167138,1,2733,-78.94143037,,,,,Simcoe Northbound @ Greenway,0,2733:1,
43.881794,1,2136,-79.027695,,,,,Harwood Northbound @ Biggs,0,2136:1,
43.841728,1,1607,-79.083084,,,,,Kingston Westbound @ Valley Farm,0,1607:1,
44.106497,2,2448,-78.978346,,,,,Reach Eastbound @ North Port,0,2448:1,
43.830787,2,3231,-79.014381,,,,,Harwood Northbound @ Dreyer,0,3231:1,
43.8108077,1,1543,-79.1336181,,,,,Altona Southbound @ Valley Gate,0,1543:1,
43.845489,1,1892,-79.09511,,,,,Finch Eastbound @ Liverpool,0,1892:1,
43.925998,2,192,-78.962027,,,,,Baldwin Southbound @ Sonley,0,192:1,
43.83548,1,1609,-79.09104,,,,,Kingston Westbound @ Liverpool,0,1609:1,
43.8466086,1,1894,-79.0900957,,,,,Finch Eastbound @ Rosefield,0,1894:1,
43.946346,1,799,-78.84174,,,,,Grandview Southbound @ Appleby,0,799:1,
43.842877,1,1734,-79.093507,,,,,Liverpool Northbound @ Anton Square,0,17341,
43.881461,2,3043,-79.018414,,,,,Salem Northbound @ Rossland,0,3043:1,
43.94095,1,647,-78.839225,,,,,Grandview Northbound @ Taunton,0,647:1,
43.9094692,2,93111,-78.7946516,,,,,Highway 2 Eastbound @ Sandringham,0,93111:1,
43.847692,1,91000,-79.020117,,,,,Harwood Southbound @ Hunt,0,91000:1,
43.9547,2,3366,-78.905928,,,,,Britannia Westbound @ Kentucky Derby,0,3366:1,
43.93717,1,645,-78.837565,,,,,Grandview Northbound @ Ridgemount,0,645:1,
43.9140769,2,93722,-78.769786,,,,,Durham Highway 2 Westbound @ Hancock,0,937221,
43.845458,1,1868,-79.095872,,,,,Finch Westbound @ Glendale,0,1868:1,
43.908456,1,1504,-78.70716,,,,,Clarington Boulevard Southbound @ Prince William,0,1504:1,
43.833656,1,93450,-79.089201,,,,,Pickering Parkway Westbound @ Liverpool,0,93450:1,
43.876615,1,90014,-78.804159,,,,,Eastbound @ 1908 Colonel Sam,0,90014:1,
43.90214933,1,460,-78.930008,,,,,Rossland Westbound @ Anderson,0,460:1,
43.93880915,1,802,-78.838405,,,,,Grandview Southbound @ Glenbourne,0,802:1,
43.8634583,1,93254,-79.0151977,,,,,Kingston Eastbound @ Salem,0,93254:1,
43.952059,2,3637,-78.844133,,,,,Grandview Northbound @ Esterbrook,0,36371,
44.104969,2,2446,-78.985241,,,,,Reach Eastbound @ Reach Industrial Park,0,2446:1,
43.934055,1,804,-78.836317,,,,,Grandview Southbound @ Summitview,0,804:1,
43.783468,2,93993,-79.231974,,,,,Progress Southbound @ Centennial College,0,939931,
44.083946,1,2478,-78.953711,,,,,King Eastbound @ Old Simcoe,0,2478:1,
43.8123605,1,93220,-79.1093549,,,,,Oklahoma Eastbound @ Eyer,0,93220:1,
43.819415,1,93216,-79.115736,,,,,Whites Southbound @ Kingston,0,93216:1,
43.895555,1,468,-78.959364,,,,,Rossland Westbound @ Cochrane,0,468:1,
43.895694,2,1359,-78.873767,,,,,Park Southbound @ King,0,1359:1,
43.89703234,1,466,-78.952654,,,,,Rossland Westbound @ Harvest,0,466:1,
43.87784,2,93719,-78.843889,,,,,Ritison Northbound @ Wolfe,0,927191,
43.867212,1,988,-78.850005,,,,,Cedar Northbound @ Killarney,0,988:1,
43.887357,2,1132,-78.869767,,,,,Park Northbound @ Quebec,0,1132:1,
43.8468680973,2,3053,-79.0062087637,,,,,Salem Southbound @ Bayly,0,3053:1,
43.967258,1,93484,-78.951755,,,,,Carnwith Eastbound @ Watford,0,93484:1,
43.874896,1,94084,-79.085571,,,,,Brock Road Northbound @ William Jackson,0,940841,
43.900361,1,93700,-78.853953,,,,,Ritson Northbound @ Bond,0,937001,
43.89090112,2,93031,-79.03862609,,,,,Harwood Southbound @ Haskell,0,93031:1,
43.9150842,1,370,-78.9592671,,,,,Taunton Westbound @ Valleywood,0,370:1,
43.853329,1,1601,-79.060678,,,,,Kingston Westbound @ Elizabeth,0,1601:1,
43.890002,1,107,-78.971094,,,,,McQuay Northbound @ Jacob,0,107:1,
43.887178,1,452,-78.909422,,,,,Dundas Eastbound @ Kathleen,0,452:1,
43.915018,1,376,-78.958357,,,,,Taunton Eastbound @ Brock Street,0,376:1,
43.913909,1,1479,-78.691688,,,,,Church Eastbound @ Scugog Street,0,1479:1,
43.869293,1,333,-78.920656,,,,,Eastbound @ 111 Consumers,0,333:1,
43.885523,2,450,-78.916718,,,,,Dundas Eastbound @ Glen Hill,0,450:1,
43.846437,1,93595,-79.027375,,,,,Northbound @ 177 Dowty,0,935951,
43.876609,1,419,-78.956299,,,,,Dundas Eastbound @ Wellington,0,419:1,
43.905084,1,1138,-78.834293,,,,,Harmony Northbound @ King,0,1138:1,
43.830842,1,1584,-79.116853,,,,,Strouds Lane Westbound @ Cricket Lane,0,1584:1,
43.86224717,2,93527,-78.885536,,,,,Wentworth Westbound @ Boundary (East side stop),0,93527:1,
43.8948175,1,309,-78.9162387,,,,,Thickson Northbound @ Manning,0,309:1,
43.937781,1,1388,-78.870628,,,,,Ormond Eastbound @ Ritson,0,1388:1,
43.87498,1,417,-78.963535,,,,,Dundas Eastbound @ White Oaks,0,417:1,
43.833073,2,1729,-79.089131,,,,,Liverpool Northbound @ Pickering Parkway,0,1729:1,
43.817215,1,1615,-79.118076,,,,,Kingston Westbound @ Steeple Hill,0,1615:1,
43.9447913,1,90040,-78.8508273,,,,,Coldstream Westbound @ Harmony (East side stop),0,90040:1,
43.813337,1,1686,-79.105305,,,,,Westbound @ 838 Oklahoma,0,1686:1,
43.878431,1,101,-78.963146,,,,,McQuay Northbound @ Moonstone,0,101:1,
43.891624,1,1074,-78.80677,,,,,Townline Northbound @ Bloor (North side stop),0,1074:1,
43.904395,1,458,-78.919716,,,,,Rossland Westbound @ Thickson,0,458:1,
43.955803,2,492,-78.961218,,,,,Baldwin Northbound @ Cassels,0,492:1,
43.871161,2,339,-78.900059,,,,,Durham College Whitby Campus,0,339:1,
43.869986,2,411,-78.987092,,,,,Kingston Westbound @ Lake Ridge,0,411:1,
43.904205,2,3116,-78.855635,,,,,Northbound @ 205 Ritson,0,3116:1,
43.888214,2,671,-78.859208,,,,,Simcoe Northbound @ Royal,0,671:1,
43.8916763,1,93027,-78.8461123,,,,,Olive Eastbound @ Verdun,0,93027:1,
43.875597,1,405,-78.961433,,,,,Dundas Westbound @ McQuay,0,405:1,
43.882025,2,3114,-78.829371,,,,,Farewell Northbound @ Raleigh,0,3114:1,
43.900483,1,93537,-78.791802,,,,,Glenabbey Northbound @ Found,0,93537:1,
43.78888,1,94066,-79.19394,,,,,Morningside Northbound @ Military Trail,0,940661,
43.872936,1,342,-78.905268,,,,,Stellar Westbound @ Thickson,0,342:1,
43.873198,2,340,-78.889539,,,,,Westbound @ 946 Champlain,0,340:1,
43.9175701,1,378,-78.9468906,,,,,Taunton Eastbound @ Garden,0,378:1,
43.829,2,94100,-79.12018,,,,,Whites Southbound @ Strouds (South side stop),0,941001,
43.866897,1,2220,-79.000205,,,,,Kingston Eastbound @ Alexanders Crossing,0,2220:1,
43.849235,2,2076,-79.020696,,,,,Harwood Southbound @ Kings Crescent,0,2076:1,
43.967171,1,507,-78.956391,,,,,Carnwith Westbound @ Downey,0,507:1,
43.901335,1,93377,-78.875818,,,,,Adelaide Westbound @ Park,0,93377:1,
43.903302,1,679,-78.866139,,,,,Simcoe Northbound @ Adelaide,0,679:1,
44.093677,1,93102,-78.955418,,,,,Old Simcoe Northbound @ Victoria,0,93102:1,
43.898769,2,677,-78.86413,,,,,Simcoe Northbound @ Bond,0,677:1,
43.89484,2,94071,-78.93797,,,,,Garden Southbound @ Manning (North side stop),0,940711,
43.849732,1,2074,-79.020558,,,,,Harwood Northbound @ Kings Crescent (North stop),0,2074:1,
43.863007,1,1032,-78.84441,,,,,Phillip Murray Southbound @ Scugog,0,1032:1,
43.928091,1,93367,-78.844483,,,,,Harmony Southbound @ Storie,0,93367:1,
43.8796476,1,3314,-79.0275635,,,,,Rossland Eastbound @ Harwood,0,3314:1,
43.882244,1,394,-78.931932,,,,,Dundas Westbound @ Garden,0,394:1,
43.864696,2,93442,-79.081702,,,,,Brock Road Northbound @ Concession 3,0,93442:1,
43.936911,1,93361,-78.85898,,,,,Wilson Northbound @ Taunton,0,93361:1,
43.894594,1,3316,-78.802985,,,,,Glenabbey Eastbound @ Bruntsfield,0,3316:1,
43.8153103,1,1511,-79.1352275,,,,,Altona Northbound @ Rougemount,0,1511:1,
43.853799,1,2282,-79.041066,,,,,Westney Northbound @ Ritchie,0,2282:1,
43.880861,1,959,-78.877979,,,,,Stevenson Southbound @ Laval,0,959:1,
43.876379,2,3564,-78.838196,,,,,Wentworth Eastbound @ Nelson,0,3564:1,
43.889641,1,1266,-78.855284,,,,,Olive Westbound @ Court,0,1266:1,
43.885542,1,665,-78.858189,,,,,Simcoe Southbound @ Mill,0,665:1,
43.8794327,1,1090,-78.860278,,,,,Bloor Westbound @ Oxford,0,1090:1,
43.9668955,1,93482,-78.9578328,,,,,Carnwith Eastbound @ Baldwin,0,93482:1,
43.9562646,2,93562,-78.8795994,,,,,Britannia Westbound @ Kedron,0,935621,
43.8810192,2,667,-78.8562365,,,,,Simcoe Southbound @ Bloor,0,667:1,
43.890989,2,1264,-78.849481,,,,,Olive Westbound @ Ritson,0,1264:1,
43.89317982,1,93056,-79.05035663,,,,,Westney Northbound @ Taunton,0,93056:1,
43.8448944,1,1946,-79.0636586,,,,,Marshcourt Southbound @ Ashford,0,1946:1,
43.821367,2,3080,-79.022861,,,,,Finley Northbound @ Burden,0,3080:1,
43.860468,1,90007,-78.94369,,,,,Victoria Westbound @ Gordon (Abilities Centre),0,90007:1,
43.825165,1,1519,-79.145977,,,,,Pine Grove Westbound @ Nordane,0,1519:1,
43.83172131,1,1582,-79.114905,,,,,Strouds Lane Eastbound @ Spruce Hill,0,1582:1,
43.820159,2,3082,-79.030493,,,,,Parkes Southbound @ Lake Driveway,0,3082:1,
43.919467,2,581,-78.852082,,,,,Rossland Eastbound @ Wilson,0,581:1_merged_999966,
43.920889,1,382,-78.931424,,,,,Taunton Eastbound @ Chatterson,0,382:1,
43.919845,2,581,-78.85053,,,,,Rossland Eastbound @ Wilson,0,581:1_merged_999962,
43.826366,2,1773,-79.094832,,,,,Bayly Westbound @ Begley,0,1773:1,
43.840787,1,1733,-79.092623,,,,,Northbound @ 1917 Liverpool,0,1733:1,
43.89498,1,1305,-78.831355,,,,,Olive Eastbound @ Elmridge,0,1305:1,
43.849206,1,3588,-78.944599,,,,,Ontario Shores (East Entrance),0,3588:1,
43.84772,1,1604,-79.074525,,,,,Kingston Westbound @ Brock Road,0,1604:1,
43.882051,2,3586,-78.868142,,,,,Park Southbound @ Hillside,0,3586:1,
43.90554102,1,654,-78.86736,,,,,Simcoe Southbound @ Parkwood (Lakeridge Health Oshawa),0,654:1,
43.9537361,2,3580,-78.9106833,,,,,Britannia Westbound @ Windfields Farms,0,3580:1,
43.913297,1,197,-78.957001,,,,,Southbound @ 3800 Brock Street,0,197:1,
43.844593,2,1891,-79.099123,,,,,Finch Eastbound @ Bowler,0,1891:1,
43.918627,1,195,-78.958862,,,,,Baldwin Southbound @ Broadleaf,0,195:1,
43.829283253,2,3074,-79.0317767202,,,,,Lake Driveway Westbound @ Walker,0,3074:1,
43.9161151,2,196,-78.9579266,,,,,Baldwin Southbound @ Taunton,0,196:1,
43.956275,1,3127,-78.896619,,,,,Britannia Eastbound @ Steeplechase,0,3127:1,
43.846007,2,1893,-79.092982,,,,,Finch Eastbound @ Forest Park,0,1893:1,
43.845278,1,2307,-79.012218,,,,,Bayly Eastbound @ Burcher,0,2307:1,
43.888873,2,3228,-78.8675047,,,,,Gibb Eastbound @ Nassau,0,3228:1,
43.836622,2,3328,-79.018864,,,,,Kitney @ Lakeridge Health Ajax Pickering,0,3328:1,
43.951339,1,490,-78.961822,,,,,Baldwin Northbound @ Roybrook,0,490:1,
43.823093,1,2002,-79.084806,,,,,Liverpool Northbound @ Haller,0,2002:1,
43.922688,1,93369,-78.841933,,,,,Harmony Northbound @ Rossland (North side stop),0,93369:1,
43.799156,1,93227,-79.14547,,,,,Kingston Eastbound @ Port Union,0,93227:1,
43.92584,1,639,-78.839057,,,,,Grandview Northbound @ Corbetts,0,639:1,
43.917568,1,93432,-78.840044,,,,,Harmony Southbound @ Glebe,0,93432:1,
43.956986,2,3137,-78.856803,,,,,Conlin Westbound @ Harmony,0,3137:1,
43.919757,2,93736,-78.916322,,,,,Garrard Northbound @ Gagnon,0,937361,
43.8611122697,1,63,-78.9398437149,,,,,Victoria Eastbound @ Henry,0,63:1,
43.940333,1,815,-78.847847,,,,,Harmony Terminal Southbound @ Taunton,0,815:1,
43.846502,1,2309,-79.006585,,,,,Bayly Eastbound @ Pickering Beach,0,2309:1,
43.82055109,2,3002,-79.1429011487,,,,,Waterford Eastbound @ Senator,0,3002:1,
43.94091,1,801,-78.839362,,,,,Grandview Southbound @ Taunton,0,801:1,
43.94571,1,90052,-78.866106,,,,,Coldstream Westbound @ Ormond,0,90052:1,
43.898724,2,93710,-78.853139,,,,,Ritson Northbound @ Athol,0,937101,
43.9555,2,3423,-78.90163,,,,,Britannia Eastbound @ Thoroughbred,0,3423:1,
43.83279628,1,1763,-79.06841759,,,,,Bayly Eastbound @ Brock Road,0,1763:1,
43.8648288,1,2218,-79.00946,,,,,Kingston Eastbound @ Wicks,0,2218:1,
43.937222,1,803,-78.837723,,,,,Grandview Southbound @ Ridgemount,0,803:1,
44.085418,1,2740,-78.9509,,,,,Union Northbound @ Hurd,0,2740:1,
43.907641,1,750,-78.852635,,,,,Adelaide Westbound @ Central Park,0,750:1,
43.83155,1,1761,-79.073951,,,,,Bayly Eastbound @ Alliance,0,1761:1,
43.877563,2,90015,-78.851395,,,,,Simcoe Northbound @ Conant,0,90015:1,
43.951182,2,3517,-78.854544,,,,,Harmony Northbound @ Greenhill,0,3517:1,
43.83507642,2,2004,-79.05785441,,,,,Bayly Eastbound @ Squires Beach,0,2004:1,
43.945316,1,90054,-78.862892,,,,,Wilson Southbound @ Coldstream,0,90054:1,
43.870787,2,3431,-79.068303,,,,,Rossland Eastbound @ Shell,0,3431:1,
43.9212983,1,365,-78.9308059,,,,,Taunton Westbound @ Rivers Edge,0,365:1,
43.913394,1,870,-78.859886,,,,,Ritson Southbound @ Hillcroft,0,870:1,
43.8880633,1,2139,-79.0372909,,,,,Harwood Northbound @ Williamson,0,2139:1,
43.892863,1,204,-78.947754,,,,,Brock Street Southbound @ Starr (North side stop),0,204:1,
43.9229815,1,809,-78.8386276,,,,,Grandview Southbound @ Rossland,0,809:1,
43.906697,2,872,-78.856969,,,,,Ritson Southbound @ Adelaide,0,872:1,
43.870491,2,3433,-79.070806,,,,,Rossland Westbound @ Stannardville,0,3433:1,
43.867911,1,261,-78.93228,,,,,Eastbound @ 187 Consumers,0,261:1,
43.774936,2,93998,-79.252175,,,,,McCowan Station,0,939981,
43.866833,2,1940,-79.013503,,,,,Walmart Westbound @ Kingston,0,1940:1,
43.910864,2,1226,-78.777544,,,,,Courtice Southbound @ Highway 2,0,1226:1,
43.901398,2,3412,-78.919311,,,,,Thickson Southbound @ William Stephenson,0,3412:1,
43.830956,1,1769,-79.077296,,,,,Bayly Westbound @ Sandy Beach,0,1769:1,
43.863287,1,1027,-78.829591,,,,,Westbound @ 60 Lakeview Park,0,1027:1,
43.861379,1,1029,-78.836721,,,,,Lakeview Park Westbound @ Ritson,0,1029:1,
43.923406558,1,363,-78.921787007,,,,,Taunton Westbound @ Tom Edwards,0,363:1,
43.824687,1,1986,-79.085622,,,,,Liverpool Southbound @ Patmore,0,1986:1,
43.821703,1,1613,-79.111949,,,,,Westbound @ 804 Kingston,0,1613:1,
43.906907,1,1224,-78.808273,,,,,Highway 2 Eastbound @ Darlington Boulevard,0,1224:1,
43.878892,2,93598,-78.829054,,,,,Wentworth Eastbound @ Farewell,0,935981,
43.848146,1,1970,-79.066524,,,,,Bainbridge Westbound @ Fairfield,0,1970:1,
43.9096849,1,373,-78.9808378,,,,,Taunton Eastbound @ Baycliffe,0,373:1,
43.877314,1,2163,-79.025754,,,,,Harwood Northbound @ Fishlock,0,2163:1,
43.913312,1,371,-78.966544,,,,,Taunton Westbound @ Cochrane,0,371:1,
43.876649,1,141,-78.962215,,,,,McQuay Southbound @ Allayden,0,141:1,
43.897776,1,202,-78.950113,,,,,Brock Street Southbound @ Rossland,0,202:1,
43.917206,2,94038,-78.790964,,,,,Trulls Northbound @ Cecil Found,0,940381,
43.90361,1,1193,-78.837145,,,,,King Eastbound @ Riverside,0,1193:1,
44.104464,1,2430,-79.109229,,,,,Reach Eastbound @ Testa,0,2430:1,
43.868228,2,1587,-78.995249,,,,,Kingston Westbound @ Audley,0,1587:1,
43.9135503631,2,3125,-78.8490766734,,,,,Wilson Southbound @ Hillcroft,0,3125:1,
43.924544,1,93453,-78.842742,,,,,Harmony Northbound @ Corbetts,0,93453:1,
43.841093,1,2301,-79.030872,,,,,Bayly Eastbound @ Finley,0,2301:1,
43.933437,1,913,-78.846916,,,,,Harmony Southbound @ Swiss,0,913:1,
43.952552,2,94049,-78.87615,,,,,Conlin Westbound @ Ritson (East side stop),0,940491,
43.89775,1,1153,-78.830938,,,,,Harmony Northbound @ Old Harmony,0,1153:1,
43.918238,1,379,-78.943813,,,,,Eastbound @ 379 Taunton,0,379:1,
43.85832,1,1597,-79.03932,,,,,Kingston Westbound @ Westney Heights Plaza,0,1597:1,
43.856298,2,1599,-79.047905,,,,,Kingston Westbound @ Mill,0,1599:1,
43.883554,2,2179,-79.01086,,,,,Rossland Westbound @ Rushworth,0,2179:1,
43.90378813,2,1155,-78.833706,,,,,Harmony Northbound @ Palace,0,1155:1,
43.858313,1,93390,-79.082123,,,,,Dellbrook Southbound @ Denby,0,93390:1,
43.856039,2,2235,-79.048411,,,,,Kingston Eastbound @ Mill,0,2235:1,
43.843703,1,2317,-79.020186,,,,,Bayly Westbound @ Commercial,0,2317:1,
43.908429,1,1244,-78.797456,,,,,Highway 2 Eastbound @ Prestonvale,0,1244:1,
43.864641,2,93441,-79.081998,,,,,Brock Road Southbound @ Clearside,0,93441:1,
43.92924,1,93366,-78.844825,,,,,Harmony Northbound @ Beatrice,0,93366:1,
43.89417,2,94072,-78.93907,,,,,Manning Eastbound @ Garden,0,940721,
43.845625,1,2315,-79.011485,,,,,Bayly Westbound @ Burcher,0,2315:1,
43.914779,2,93739,-78.921612,,,,,Dryden Eastbound @ Waller,0,937391,
43.884305,2,2173,-79.007262,,,,,Rossland Eastbound @ Hilton,0,2173:1,
43.846447,1,2574,-79.039484,,,,,Fairall Eastbound @ Westney (West side stop),0,2574:1,
43.921996,1,383,-78.926841,,,,,Taunton Eastbound @ Thickson,0,383:1,
43.884433,1,314,-78.912122,,,,,Southbound @ 44 Thickson,0,314:1,
43.903305,1,1149,-78.833634,,,,,Harmony Southbound @ Palace,0,1149:1,
43.859736,1,1851,-79.083173,,,,,Dellbrook Northbound @ Melman,0,1851:1,
43.911662,2,1454,-78.687321,,,,,King Eastbound @ Division,0,1454:1,
43.9624,2,3545,-78.96784,,,,,Carnwith Westbound @ Montgomery,0,3545:1,
43.861105,1,1853,-79.087913,,,,,Dellbrook Westbound @ Blue Ridge (West stop),0,1853:1,
43.9673515,1,506,-78.9528905,,,,,Carnwith Westbound @ Croxall,0,506:1,
43.96495,2,3547,-78.96192,,,,,Carnwith Westbound @ Braddock,0,3547:1,
43.882415,1,93277,-78.912172,,,,,Eastbound @ 1559 Nichol,0,93277:1,
43.94279,2,3551,-78.87257,,,,,Ritson Southbound @ Luple,0,3551:1,
43.933475,1,1143,-78.846786,,,,,Harmony Northbound @ Swiss,0,1143:1,
43.84227253,2,1872,-79.10974522,,,,,Finch Westbound @ Duncannon,0,1872:1,
43.822495,2,1702,-79.074689,,,,,Lublin Southbound @ Balaton,0,1702:1,
43.95583,2,3557,-78.89949,,,,,Simcoe Northbound @ Britannia,0,3557:1,
43.911959,2,1141,-78.837306,,,,,Harmony Northbound @ Adelaide,0,1141:1,
43.887123,1,276,-78.912944,,,,,Thickson Northbound @ Dundas,0,276:1,
43.882884,2,393,-78.929034,,,,,Dundas Westbound @ Craydon,0,393:1,
43.879227,1,93000,-78.827646,,,,,Colonel Sam Eastbound @ Farewell,0,93000:1,
43.869403,2,325,-78.920834,,,,,Westbound @ 112 Consumers,0,325:1,
43.827637,1,1772,-79.092178,,,,,Bayly Westbound @ St Martins,0,1772:1,
43.962738,2,3591,-78.90513,,,,,Windfields Farm Eastbound @ Thoroughbred,0,3591:1,
43.878137,1,92042,-79.034956,,,,,Rossland Westbound @ 128 Rossland,0,92042:1,
44.1036400286,2,3339,-78.9473086148,,,,,Simcoe Southbound @ Queen,0,3339:1,
43.881419,1,138,-78.966575,,,,,McQuay Southbound @ Roan,0,138:1,
43.926015,1,3179,-78.854372,,,,,Wilson Southbound @ Attersley,0,3179:1,
43.912771,1,1452,-78.694976,,,,,King Eastbound @ Roenigk,0,1452:1,
43.816824,1,1778,-79.11822,,,,,Kingston Eastbound @ Steeple Hill,0,1778:1,
43.836196,1,1932,-79.101806,,,,,Glenanna Eastbound @ Dixie,0,1932:1,
44.110073,1,2450,-78.961905,,,,,Reach Eastbound @ Sherrington,0,2450:1,
43.936944,1,845,-78.860491,,,,,Taunton Eastbound @ Wilson (West side stop),0,845:1,
43.8704308,1,93148,-79.0177597,,,,,Salem Northbound @ Kerrison,0,93148:1,
43.904711,1,1148,-78.834386,,,,,Harmony Southbound @ King,0,1148:1,
44.097862,2,2506,-78.955178,,,,,Scugog Westbound @ Old Simcoe,0,2506:1,
43.8915529,1,561,-78.8936936,,,,,Thornton Southbound @ King,0,561:1,
44.099451,2,2504,-78.947519,,,,,Scugog Westbound @ Arrow,0,2504:1,
43.910505,1,567,-78.891435,,,,,Rossland Eastbound @ Stevenson,0,567:1,
43.870194,2,323,-78.915887,,,,,Consumers Westbound @ Hopkins,0,323:1,
43.830141,1,1770,-79.081122,,,,,Bayly Westbound @ Krosno,0,1770:1,
43.911558,1,569,-78.886776,,,,,Rossland Eastbound @ Gibbons,0,569:1,
43.897544,1,10,-78.93895,,,,,Garden Northbound @ Bassett (South stop),0,10:1,
43.91198,2,600,-78.885572,,,,,Rossland Westbound @ Gibbons,0,600:1,
43.832348,1,2082,-79.015003,,,,,Southbound @ 766 Harwood,0,2082:1,
43.876878,2,212,-78.941093,,,,,Brock Street Southbound @ Gilbert,0,212:1,
44.109315,2,3635,-79.120595,,,,,Brock Eastbound @ Main,0,36351,
43.917454,2,93737,-78.915265,,,,,Garrard Northbound @ Dryden,0,937371,
43.916479,1,575,-78.864739,,,,,Rossland Eastbound @ Oshawa Boulevard,0,575:1,
43.85324,2,2233,-79.060413,,,,,Kingston Eastbound @ Elizabeth,0,2233:1,
43.890197,2,2605,-78.861086,,,,,Gibb Eastbound @ Centre,0,2605:1,
43.856696,1,972,-78.863105,,,,,Renaissance Westbound @ Connery,0,972:1,
43.881571,2,3587,-78.868386,,,,,Park Northbound @ Hillside,0,3587:1,
43.918411,1,577,-78.856553,,,,,Rossland Eastbound @ Central Park,0,577:1,
43.89762825,2,93535,-78.795147,,,,,Glenabbey Eastbound @ Prestonvale,0,93535:1,
43.842726,2,2304,-79.023519,,,,,Bayly Eastbound @ Woodchester,0,2304:1,
43.934727,1,3271,-78.868826,,,,,Ritson Northbound @ Taunton,0,3271:1,
43.903602,2,200,-78.952735,,,,,Brock Street Southbound @ James Rowe,0,200:1,
43.867763,2,2221,-78.996374,,,,,Kingston Eastbound @ Audley,0,2221:1,
43.895036,2,93711,-78.851457,,,,,Ritson Northbound @ Eulalie,0,937111,
43.93161,1,841,-78.884417,,,,,Taunton Eastbound @ Somerville,0,841:1,
43.857079,2,94086,-79.087567,,,,,Greenmount Westbound @ Major Oaks,0,940861,
43.935424,1,843,-78.867381,,,,,Taunton Eastbound @ Ritson,0,843:1,
43.81744,1,93099,-79.136556,,,,,Altona Southbound @ Twyn Rivers,0,93099:1,
43.924469,1,385,-78.916053,,,,,Taunton Eastbound @ Sebastian,0,385:1,
43.92317417,1,638,-78.83853,,,,,Grandview Northbound @ Ripley,0,638:1,
43.852804,2,1846,-79.076493,,,,,Brock Road Northbound @ Usman,0,1846:1,
43.8491309,1,93123,-79.028733,,,,,Station Westbound @ Dowty,0,93123:1,
43.93885,1,911,-78.849298,,,,,Harmony Southbound @ Taunton,0,911:1,
43.882116,2,274,-78.910842,,,,,Thickson Northbound @ Nichol,0,274:1,
43.954223,2,93356,-78.866713,,,,,Wilson Northbound @ Conlin,0,93356:1,
43.895745,1,544,-78.895259,,,,,Northbound @ 185 Thornton,0,544:1,
43.914105,2,1217,-78.778936,,,,,Courtice Southbound @ Moyse (Courtice Community Complex),0,1217:1,
43.840751,2,1874,-79.117121,,,,,Finch Westbound @ Darwin,0,1874:1,
43.776643,2,93999,-79.252857,,,,,McCowan Northbound @ Progress,0,939991,
43.901002,1,1188,-78.848573,,,,,King Eastbound @ Central Park,0,1188:1,
43.877464,1,3294,-79.037962,,,,,Rossland Westbound @ Seggar,0,3294:1,
43.92549,2,189,-78.961574,,,,,Baldwin Northbound @ Sleepy Hollow,0,189:1,
43.94918809,1,93358,-78.864702,,,,,Wilson Southbound @ Greenhill,0,93358:1,
43.887869,2,3262,-78.838006,,,,,Dean Westbound @ Wilson,0,3262:1,
43.82672,1,93599,-79.086556,,,,,Liverpool Southbound @ East Shore Community Centre,0,935991,
43.8632403,1,2263,-79.0398311,,,,,Southbound @ 216 Westney,0,2263:1,
43.916442,1,93324,-78.77997,,,,,Courtice Southbound @ Nash,0,93324:1,
43.947746,1,2712,-78.895601,,,,,Simcoe Northbound @ Conlin,0,2712:1,
43.921148,2,716,-78.873886,,,,,Simcoe Southbound @ Switzer,0,716:1,
43.94435514,1,90041,-78.852735,,,,,Coldstream Westbound @ Harmony (West side stop),0,90041:1,
43.847784,1,2332,-79.034135,,,,,Fairall Eastbound @ McMaster,0,2332:1,
43.866866,1,2261,-79.039272,,,,,Westney Southbound @ Delaney,0,2261:1,
43.920355,1,93326,-78.781595,,,,,Courtice Northbound @ George Reynolds,0,93326:1,
43.935495,2,710,-78.880108,,,,,Simcoe Southbound @ Cayuga,0,710:1,
43.846466,1,3048,-79.005762,,,,,Pickering Beach Northbound @ Bayly,0,3048:1,
43.83288182,1,1983,-79.111001,,,,,Fairport Southbound @ Strouds,0,1983:1,
43.895046,1,93140,-79.042096,,,,,Harwood Northbound @ Taunton,0,93140:1,
43.884224,2,94064,-78.96784,,,,,McQuay Southbound @ Bonacord,0,940641,
43.867257,1,2160,-79.025183,,,,,Harwood Northbound @ Ringer,0,2160:1,
43.900152,2,181,-78.950988,,,,,Brock Street Northbound @ Kenneth Hobbs,0,181:1,
43.818764,1,1742,-79.115943,,,,,Kingston Westbound @ Whites,0,1742:1,
43.894634,2,93139,-79.042023,,,,,Harwood Southbound @ Taunton,0,93139:1,
43.86138006,1,92071,-79.01519547,,,,,Salem Southbound @ Twilley,0,92071:1,
43.8885767,2,93142,-79.0376546,,,,,Harwood Southbound @ Williamson,0,93142:1,
43.952296,2,94048,-78.844517,,,,,Grandview Southbound @ Greenhill,0,940481,
43.873823,1,2162,-79.02425,,,,,Harwood Northbound @ Hibbard,0,2162:1,
43.8910876,1,1175,-78.8920772,,,,,King Eastbound @ Thornton,0,1175:1,
43.824528,2,1744,-79.117997,,,,,Northbound @ 1675 Whites,0,1744:1,
43.823526,2,1781,-79.1066,,,,,Kingston Eastbound @ Fairport,0,1781:1,
43.849265,2,2336,-79.021094,,,,,Ajax Plaza,0,2336:1,
43.8434567,1,2269,-79.03655988,,,,,Westney Southbound @ O'Brien,0,2269:1,
43.830837,1,1783,-79.096536,,,,,Kingston Eastbound @ Walnut,0,1783:1,
43.84696,1,2330,-79.038432,,,,,Fairall Westbound @ Westney,0,2330:1,
43.918266,1,187,-78.958405,,,,,Baldwin Northbound @ Broadleaf,0,187:1,
43.85471414,1,93461,-78.878845,,,,,Thornton Southbound @ Phillip Murray,0,93461:1,
43.85644,1,60,-78.94271,,,,,Northbound @ 300 Gordon (Lakeridge Health Whitby),0,601,
43.904587,1,721,-78.864226,,,,,Adelaide Eastbound @ Kendal,0,721:1,
43.87542,2,2168,-79.046516,,,,,Rossland Eastbound @ Pearce,0,2168:1,
43.901176,1,1150,-78.83267,,,,,Harmony Southbound @ Hoskin,0,1150:1,
43.896955,1,1152,-78.830782,,,,,Harmony Southbound @ Florell,0,1152:1,
43.84806,1,1789,-79.0734468,,,,,Kingston Eastbound @ Brock Road,0,1789:1,
43.8504508032,2,3560,-79.0755372677,,,,,Brock Road Northbound @ Finch,0,3560:1,
43.95228111,1,93937,-78.89825264,,,,,Simcoe Southbound @ Northern Dancer,0,939371,
43.82171,1,1832,-79.082416,,,,,Southbound @ 725 Krosno,0,1832:1,
43.889648,1,1067,-78.813063,,,,,Grandview Southbound @ Bloor (South side stop),0,1067:1,
43.85485,1,93246,-78.87405,,,,,Phillip Murray Eastbound @ Skae,0,93246:1,
43.8422129,1,93194,-79.0739061,,,,,Pickering Parkway Southbound @ Geta,0,93194:1,
43.899141,2,1186,-78.856595,,,,,King Eastbound @ Drew,0,1186:1,
43.87116,2,3550,-79.06323,,,,,Rossland Westbound @ Church,0,3550:1,
43.8799536,1,1120,-78.8286811,,,,,Farewell Southbound @ Wentworth,0,1120:1,
44.1122,1,2453,-78.951756,,,,,Reach Eastbound @ Simcoe,0,2453:1,
43.90453,1,1158,-78.84239,,,,,Bond Westbound @ Claymore (East side stop),0,1158:1,
43.84503584,1,2097,-79.005575,,,,,Pickering Beach Northbound @ Powers Valley,0,2097:1,
43.88721867,1,313,-78.913195,,,,,Thickson Southbound @ Dundas,0,313:1,
43.83753,1,1912,-79.08439,,,,,Glenanna Northbound @ The Esplanade,0,19121,
44.111107,2,2455,-78.957656,,,,,Reach Westbound @ Old Simcoe,0,2455:1,
43.8865965,1,1069,-78.8095866,,,,,Grandview Southbound @ Norman,0,1069:1,
43.799508,1,93240,-79.145701,,,,,Kingston Westbound @ Sheppard,0,93240:1,
43.87551,2,3566,-78.841977,,,,,Wentworth Eastbound @ Ritson,0,3566:1,
43.882105,2,3042,-79.019056,,,,,Salem Southbound @ Rossland,0,3042:1,
43.868088,1,328,-78.931766,,,,,Westbound @ 180 Consumers,0,328:1,
43.88874243,1,312,-78.91385,,,,,Thickson Southbound @ Crawforth,0,312:1,
43.85522,2,3367,-79.077861,,,,,Brock Road Southbound @ Major Oaks,0,3367:1,
43.878222,1,1101,-78.807633,,,,,Eastbound @ 1189 Colonel Sam,0,1101:1,
43.858818,2,319,-78.899945,,,,,Wentworth Eastbound @ Thickson,0,319:1,
43.911379,1,3106,-78.923414,,,,,Thickson Northbound @ Fieldnest,0,3106:1,
44.106635,2,2449,-78.977997,,,,,Reach Westbound @ North Port,0,2449:1,
43.94296,2,3552,-78.87249,,,,,Ritson Northbound @ Luple,0,3552:1,
43.882694,1,93248,-78.910251,,,,,Nichol Eastbound @ Thickson,0,93248:1,
43.8979268,2,2406,-79.0315523,,,,,Taunton Westbound @ Salem,0,2406:1,
43.859341,2,320,-78.897457,,,,,Wentworth Eastbound @ McEwen,0,320:1,
43.83056,2,93495,-79.066528,,,,,Brock Road Southbound @ Orangebrook,0,93495:1,
43.94528721,1,93036,-78.8517754,,,,,Harmony Northbound @ Coldstream,0,93036:1,
43.870879,1,322,-78.913046,,,,,Consumers Westbound @ Sunray,0,322:1,
43.822082,2,93510,-79.074392,,,,,Lublin Northbound @ Balaton,0,93510:1,
43.945803,1,93493,-78.863295,,,,,Coldstream Eastbound @ Wilson,0,93493:1,
44.109472,1,2443,-79.120325,,,,,Brock Street Westbound @ Main Street,0,2443:1,
43.92999275,1,93040,-78.962969,,,,,Baldwin Southbound @ Canary,0,93040:1,
44.10972,1,2441,-79.117235,,,,,Franklin Southbound @ Brock Street,0,2441:1,
43.888491,2,3039,-79.026599,,,,,Salem Northbound @ Gillett,0,3039:1,
43.881463,1,2171,-79.019467,,,,,Rossland Eastbound @ Salem,0,2171:1,
43.901254,1,1162,-78.852657,,,,,Bond Westbound @ Oshawa Boulevard,0,1162:1,
43.9123477,2,93729,-78.735274,,,,,Durham Highway 2 Eastbound @ Holt,0,937291,
43.818659,1,1675,-79.104486,,,,,West Shore Northbound @ Cecylia,0,1675:1,
43.899252,1,1164,-78.86069,,,,,Bond Westbound @ Mary,0,1164:1,
43.89355735,1,560,-78.894515,,,,,Thornton Southbound @ Castlegrove,0,560:1,
43.9116381,2,93734,-78.701406,,,,,Durham Highway 2 Westbound @ Bowmanville Ave,0,937341,
43.9009439,1,461,-78.9353815,,,,,Rossland Westbound @ Bassett,0,461:1,
43.932714,1,862,-78.868262,,,,,Ritson Southbound @ Pentland,0,862:1,
43.858871,1,2152,-79.02496,,,,,Harwood Southbound @ Gardiner,0,2152:1,
43.875586,1,1016,-78.857982,,,,,Malaga Eastbound @ Oxford (East side stop),0,1016:1,
43.888336,1,106,-78.969264,,,,,McQuay Northbound @ Renfield,0,106:1,
43.910014,2,2707,-78.980509,,,,,Taunton Westbound @ Baycliff,0,2707:1,
43.87281378,1,1018,-78.855636,,,,,Glen Southbound @ Medina,0,1018:1,
43.85717,2,94081,-79.087286,,,,,Greenmount Eastbound @ Major Oaks,0,940811,
43.8753204,1,418,-78.9619208,,,,,Dundas Eastbound @ Jeffery,0,418:1,
43.936751,1,1387,-78.871436,,,,,Northbound @ 227 Ormond,0,1387:1,
43.890498,1,176,-78.946574,,,,,Northbound @ 807 Brock Street,0,176:1,
43.9087386,2,3346,-78.711744,,,,,Green Northbound @ Highway 2 (South side stop),0,3346:1,
43.89427381,1,469,-78.964817,,,,,Rossland Westbound @ Country Lane,0,469:1,
43.84046,1,2270,-79.035459,,,,,Westney Southbound @ Bayly,0,2270:1,
43.8766441773,2,170,-78.9408107746,,,,,Brock Street Northbound @ Gilbert,0,170:1,
43.887704,1,93347,-78.805281,,,,,Townline Southbound @ Grandview,0,93347:1,
43.901543,1,1189,-78.846174,,,,,King Eastbound @ Cadillac,0,1189:1,
43.950765,2,535,-78.961834,,,,,Baldwin Southbound @ Roybrook,0,535:1,
43.890704,1,93522,-78.806551,,,,,Townline Southbound @ Bloor (South side stop),0,93522:1,
43.935634,1,90057,-78.858629,,,,,Southbound @ 1310 Wilson,0,90057:1,
43.869794,2,412,-78.98701,,,,,Kingston Eastbound @ Lake Ridge,0,412:1,
43.83744,1,1915,-79.084563,,,,,Glenanna Southbound @ The Esplanade (South side stop),0,1915:1,
43.87132,2,410,-78.98098,,,,,Dundas Westbound @ Halls,0,410:1,
43.897865,2,94092,-78.891092,,,,,Adelaide Eastbound @ Waverley,0,940921,
43.827273,1,2031,-79.0073526,,,,,Clover Ridge Westbound @ Crawford,0,2031:1,
43.896359,2,1183,-78.868644,,,,,King Eastbound @ Midtown,0,1183:1,
43.890786,2,93712,-78.849532,,,,,Ritson Northbound @ Olive,0,937121,
43.953884,2,93355,-78.866753,,,,,Wilson Southbound @ Conlin,0,93355:1,
43.85221471,2,93048,-79.06469787,,,,,Kingston Eastbound @ Notion,0,93048:1,
43.9409719552,2,707,-78.8862254747,,,,,Simcoe Southbound @ Niagara (South stop),0,707:1,
43.902041,1,482,-78.929591,,,,,Rossland Eastbound @ Anderson,0,482:1,
43.9454436,1,93357,-78.862774,,,,,Wilson Northbound @ Coldstream,0,93357:1,
43.9142915,1,598,-78.8750578,,,,,Rossland Westbound @ Osler,0,598:1,
43.882318,2,2709,-78.846976,,,,,Bloor Eastbound @ Ritson,0,2709:1,
43.880638,1,1089,-78.855267,,,,,Bloor Westbound @ Simcoe,0,1089:1,
43.9449735,1,93424,-78.8563396,,,,,Coldstream Eastbound @ Clearbrook,0,93424:1,
43.84141,1,2321,-79.030484,,,,,Bayly Westbound @ Finley,0,2321:1,
43.950011,2,3134,-78.843457,,,,,Grandview Southbound @ Salmers,0,3134:1,
43.867601,2,260,-78.935735,,,,,Consumers Eastbound @ Paisley,0,260:1,
43.887969,1,93349,-78.810673,,,,,Grandview Northbound @ Wesley,0,93349:1,
43.920533,1,590,-78.854243,,,,,Terrace Southbound @ Mayfair,0,590:1,
43.83854,1,1753,-79.124218,,,,,Whites Southbound @ Finch,0,1753:1,
43.940237,1,90055,-78.860584,,,,,Wilson Southbound @ Larry,0,90055:1,
43.82488,1,2059,-79.015046,,,,,Clover Ridge Southbound @ Pittmann,0,2059:1,
43.916114,2,596,-78.866933,,,,,Rossland Westbound @ Minto,0,596:1,
43.9039,1,484,-78.92099,,,,,Rossland Eastbound @ Thickson,0,484:1,
43.890377,2,672,-78.860193,,,,,Simcoe Northbound @ Elm St,0,672:1,
43.823716,1,1612,-79.106421,,,,,Kingston Westbound @ Fairport,0,1612:1,
43.885802,1,670,-78.858134,,,,,Simcoe Northbound @ Albany,0,670:1,
43.83396548,1,1755,-79.122213,,,,,Whites Southbound @ Highview,0,1755:1,
43.845931,1,2327,-79.026917,,,,,Hunt Westbound @ Dowty,0,2327:1,
43.88805,2,541,-78.891815,,,,,Thornton Northbound @ Monaghan (Trent University Oshawa),0,541:1,
43.832976,1,1741,-79.089382,,,,,Liverpool Southbound @ Pickering Parkway,0,1741:1,
44.109303,1,2422,-79.122461,,,,,Toronto Northbound @ Brock Street (North side stop),0,2422:1,
43.85839,1,61,-78.94353,,,,,Gordon Northbound @ Whitby Shores Greenway,0,611,
43.829813,2,3086,-79.004291,,,,,Clover Ridge Eastbound @ Clarke,0,3086:1,
43.821974,2,1743,-79.116675,,,,,Whites Northbound @ Sheppard,0,1743:1,
43.904046,1,1230,-78.781861,,,,,Avondale Southbound @ Farmington,0,1230:1,
43.8436022,1,1949,-79.0698917,,,,,Westbound @ 1738 Pickering Parkway,0,1949:1,
43.92931,2,3344,-78.855818,,,,,Wilson Southbound @ Tiffany,0,3344:1,
43.927268,1,864,-78.865798,,,,,Ritson Southbound @ Oshawa Boulevard (North stop),0,864:1,
43.90088592,1,678,-78.865075,,,,,Simcoe Northbound @ Colborne,0,678:1,
43.876246,1,1097,-78.848778,,,,,Simcoe Northbound @ Frank,0,1097:1,
43.847185,1,2335,-79.020851,,,,,Hunt Eastbound @ Harwood,0,2335:1,
43.8691799,2,217,-78.9376805,,,,,Brock Street Southbound @ Arthur,0,217:1,
43.9018064,1,282,-78.9192174,,,,,Thickson Northbound @ William Stephenson,0,282:1,
43.862037,1,2242,-79.021604,,,,,Eastbound @ 69 Kingston,0,2242:1,
43.838667,2,1749,-79.12405,,,,,Whites Northbound @ Finch,0,1749:1,
43.90771,1,724,-78.852306,,,,,Adelaide Eastbound @ Central Park,0,724:1,
43.839378,1,1732,-79.091944,,,,,Liverpool Northbound @ Glenanna,0,1732:1,
43.880828,1,93189,-78.821307,,,,,Westbound @ 944 Colonel Sam,0,93189:1,
43.94634257,1,90076,-78.894148,,,,,Simcoe Southbound @ Founders,0,90076:1,
43.884522,2,391,-78.922001,,,,,Dundas Westbound @ Anderson,0,391:1,
43.881479,1,2244,-79.020109,,,,,Rossland Westbound @ Salem,0,2244:1,
43.843068,1,2281,-79.036025,,,,,Westney Northbound @ O'Brien,0,2281:1,
43.821446,1,1759,-79.116696,,,,,Whites Southbound @ Sheppard,0,1759:1,
44.1035182782,1,3340,-78.947096678,,,,,Simcoe Northbound @ Queen,0,3340:1,
43.955815,2,93567,-78.889993,,,,,Britannia Westbound @ Secreto,0,935671,
43.943005,1,90070,-78.861823,,,,,Wilson Southbound @ Clearsky,0,90070:1,
43.840725,2,1886,-79.116653,,,,,Finch Eastbound @ Darwin,0,1886:1,
43.85724787,1,2283,-79.04155679,,,,,Westney Northbound @ Kingston,0,2283:1,
43.910829,1,1245,-78.787906,,,,,Highway 2 Eastbound @ Trulls,0,1245:1,
43.928737,1,642,-78.834149,,,,,Grandview Northbound @ Rathburn,0,642:1,
43.9060993,1,93307,-78.7866448,,,,,Sandringham Eastbound @ Trulls,0,93307:1,
43.895479,2,1181,-78.872558,,,,,King Eastbound @ Warren,0,1181:1,
43.9384,1,824,-78.854926,,,,,Taunton Westbound @ Clearbrook,0,824:1,
43.82773,1,93232,-79.142123,,,,,Pine Grove Westbound @ Altona,0,93232:1,
43.923146,1,886,-78.863791,,,,,Northbound @ 881 Ritson,0,886:1,
43.927335,1,888,-78.865643,,,,,Ritson Northbound @ Oshawa Boulevard (North stop),0,888:1,
43.9168969,1,90078,-78.95004,,,,,Eastbound @ 169 Taunton,0,90078:1,
43.908884,1,749,-78.848885,,,,,Adelaide Westbound @ Juliana,0,749:1,
43.836377,1,93197,-79.079469,,,,,Pickering Parkway Westbound @ Valley Farm,0,93197:1,
44.111026,2,2452,-78.957515,,,,,Reach Eastbound @ Old Simcoe,0,2452:1,
43.8501483,1,1603,-79.0710031,,,,,Kingston Westbound @ Bainbridge,0,1603:1,
43.849848,1,1941,-79.070113,,,,,Bainbridge Southbound @ Kingston,0,1941:1,
43.820706,2,93503,-79.055786,,,,,Westbound @ 850 McKay,0,93503:1,
43.83966433,1,93195,-79.073091,,,,,Pickering Parkway Southbound @ Portland,0,93195:1,
43.8611712,1,1594,-79.0267418,,,,,Kingston Westbound @ Harwood,0,1594:1,
43.87183948,2,93179,-78.89141,,,,,Eastbound @ 933 Bloor Street West,0,93179:1,
43.863997,1,2159,-79.026117,,,,,Harwood Northbound @ Chapman,0,2159:1,
43.88232766,1,2143,-79.028197,,,,,Harwood Southbound @ Biggs,0,2143:1,
43.955852,2,3136,-78.845803,,,,,Grandview Northbound @ Woodstream,0,3136:1,
43.8241576,2,93511,-79.0759742,,,,,Alyssum Westbound @ Krosno,0,93511:1,
43.91025,2,880,-78.858314,,,,,Ritson Northbound @ Rolson,0,880:1,
43.982203,2,2458,-78.911351,,,,,Simcoe Southbound @ Columbus Road (Columbus),0,2458:1,
43.847858,1,2329,-79.034274,,,,,Fairall Westbound @ McMaster,0,2329:1,
43.902664,1,1161,-78.849882,,,,,Bond Westbound @ Patricia,0,1161:1,
43.847679,1,2569,-79.041346,,,,,Ajax Station,0,2569:1,
43.8755334,2,93057,-79.04638522,,,,,Rossland Westbound @ Carter-Bennett,0,93057:1,
43.910527,1,374,-78.97724,,,,,Taunton Eastbound @ Country Lane,0,374:1,
43.877704,1,2145,-79.026265,,,,,Harwood Southbound @ Fishlock,0,2145:1,
43.856126,1,940,-78.867067,,,,,Stevenson Northbound @ Phillip Murray,0,940:1,
43.8189771,1,1662,-79.1047516,,,,,West Shore Southbound @ Cecylia,0,1662:1,
43.9126438,2,93728,-78.734177,,,,,Durham Highway 2 Westbound @ Holt,0,937281,
43.902546,1,2403,-79.011461,,,,,Taunton Eastbound @ Audley,0,2403:1,
43.83296,2,2056,-79.020023,,,,,Monarch Southbound @ Barr,0,2056:1,
43.856089,1,939,-78.867212,,,,,Stevenson Southbound @ Phillip Murray,0,939:1,
43.885744,1,942,-78.879867,,,,,Stevenson Northbound @ Gibb,0,942:1,
43.896215,1,1169,-78.874631,,,,,Bond Westbound @ Park,0,1169:1,
43.892156,1,1173,-78.888154,,,,,King Westbound @ Waverly,0,1173:1,
43.951873,2,3518,-78.855046,,,,,Harmony Southbound @ Greenhill,0,3518:1,
43.961669,2,94110,-78.974259,,,,,Carnwith Eastbound @ Darius Harns,0,941101,
43.857094,2,2153,-79.024118,,,,,Harwood Southbound @ Ontario,0,2153:1,
43.923381,2,93735,-78.917892,,,,,Garrard Northbound @ Griffen,0,937351,
43.902554,1,755,-78.870472,,,,,Adelaide Westbound @ Frances,0,755:1,
43.828737,2,93496,-79.065713,,,,,Brock Road Southbound @ Quigley,0,93496:1,
43.835391,1,1730,-79.090151,,,,,Liverpool Northbound @ Kingston,0,17301,
43.86054494,1,92054,-79.01441304,,,,,Northbound @ 133 Salem,0,92054:1,
43.902215,2,1190,-78.843385,,,,,King Eastbound @ Wilson,0,1190:1,
43.870666,1,1024,-78.8386,,,,,Simcoe Southbound @ Wellington,0,1024:1,
43.915536,1,605,-78.871221,,,,,Simcoe Northbound @ Rossland,0,605:1,
43.848572,1,94080,-79.085389,,,,,Valley Farm Northbound @ Bloomfield,0,940801,
43.82622,1,3253,-79.012367,,,,,Clover Ridge Eastbound @ Andrea,0,3253:1,
43.879952,2,211,-78.942282,,,,,Brock Street Southbound @ Dundas,0,211:1,
43.873574,2,169,-78.939405,,,,,Brock Street Northbound @ Trent,0,169:1,
43.9239959,1,362,-78.9190382,,,,,Taunton Westbound @ Garrard,0,362:1,
43.871084,2,167,-78.93832,,,,,Brock Street Northbound @ St Peter,0,167:1,
43.879381,1,1056,-78.860118,,,,,Bloor Eastbound @ Oxford,0,1056:1,
43.82906,1,1611,-79.098675,,,,,Kingston Westbound @ Dixie,0,1611:1,
43.800473,2,93981,-79.207625,,,,,Sheppard Westbound @ Brenyon,0,939811,
43.835718,1,1924,-79.104531,,,,,Glenanna Westbound @ Echo Point,0,1924:1,
43.900548,1,1163,-78.855176,,,,,Bond Westbound @ Ritson,0,1163:1,
43.886764,1,1287,-78.876312,,,,,Eastbound @ 431 Gibb,0,1287:1,
43.887759,1,1289,-78.872047,,,,,Gibb Eastbound @ Montrave,0,1289:1,
43.836246,2,2054,-79.022383,,,,,Southbound @ 556 Monarch,0,2054:1,
43.886286,1,388,-78.914145,,,,,Dundas Westbound @ Thickson,0,388:1,
43.86046419,1,994,-78.852871,,,,,Oxford Southbound @ Phillip Murray,0,994:1,
44.098585,2,2510,-78.951258,,,,,Scugog Eastbound @ Ottawa,0,2510:1,
44.017775,2,2462,-78.925672,,,,,Simcoe Northbound @ Raglan Road (Raglan),0,2462:1,
43.85448188,2,93462,-78.878558,,,,,Phillip Murray Westbound @ Thornton,0,93462:1,
43.889802,1,93608,-78.983372,,,,,Rossland Eastbound @ Des Newman,0,936081,
43.888433,2,1066,-78.819826,,,,,Eastbound @ 887 Bloor,0,1066:1,
44.024706,2,2464,-78.924782,,,,,Simcoe Southbound @ Snow Ridge,0,2464:1,
43.86448,1,992,-78.8526593,,,,,Oxford Southbound @ Kinmount,0,992:1,
43.9172968,1,368,-78.9492709,,,,,Taunton Westbound @ Garden (West side stop),0,368:1,
43.886266,2,175,-78.944746,,,,,Brock Street Northbound @ Maple,0,175:1,
43.886977,2,207,-78.945274,,,,,Brock Street Southbound @ Maple,0,207:1,
43.958574,1,94093,-78.937482,,,,,Winchester Eastbound @ Cachet,0,940931,
43.903023,1,1192,-78.839804,,,,,King Eastbound @ Farewell,0,1192:1,
43.863688,1,93152,-79.015986,,,,,Salem Northbound @ Kingston,0,93152:1,
43.898959,2,93713,-78.853486,,,,,Ritson Southbound @ Athol,0,937131,
43.891901,1,177,-78.947176,,,,,Brock Street Northbound @ Manning,0,177:1,
43.859114,2,45,-78.949545,,,,,Victoria Westbound @ Montecorte,0,45:1,
44.096969,2,2516,-78.955784,,,,,Old Simcoe Southbound @ Scugog Street,0,2516:1,
43.8464652,2,3332,-79.0210868,,,,,Harwood Plaza Westbound,0,3332:1,
43.885118,1,1281,-78.884574,,,,,Gibb Westbound @ Waverly,0,1281:1,
43.858841,1,2238,-79.035728,,,,,Kingston Eastbound @ Ritchie,0,2238:1,
43.859254,1,1596,-79.035043,,,,,Kingston Westbound @ Chapman,0,1596:1,
43.92152,1,583,-78.843256,,,,,Rossland Eastbound @ Harmony,0,583:1,
43.860404,1,93389,-79.084541,,,,,Dellbrook Eastbound @ Chapman,0,93389:1,
43.785544,2,94067,-79.193092,,,,,Elesmere Westbound @ Moringside,0,940671,
43.85061079,1,93059,-78.94366388,,,,,Gordon Eastbound @ James Govan,0,93059:1,
43.925096,1,93454,-78.843164,,,,,Harmony Southbound @ Corbetts,0,93454:1,
43.819471,2,3079,-79.018865,,,,,Lake Driveway Westbound @ Finley,0,3079:1,
43.863046,2,93464,-78.881491,,,,,Wentworth Westbound @ Thornton,0,93464:1,
43.835856,1,1931,-79.103337,,,,,Glenanna Eastbound @ Rawlings,0,1931:1,
43.8144291,2,93519,-79.0652288,,,,,Montgomery Park Westbound @ OPG Pickering,0,93519:1,
43.794411,2,94011,-79.234769,,,,,Progress Northbound @ Sheppard,0,940111,
43.821355,2,3260,-79.028417,,,,,Parkes Westbound @ Milner,0,3260:1,
43.846093,2,1867,-79.092827,,,,,Finch Westbound @ Forest Park,0,1867:1,
43.9223567,1,585,-78.8401886,,,,,Rossland Westbound @ Harmony,0,585:1,
43.85219,1,1861,-79.076518,,,,,Southbound @ 2058 Brock Road (Brock Ridge Community Park),0,1861:1,
43.881681,1,1088,-78.85046,,,,,Bloor Westbound @ Merritt,0,1088:1,
43.9274802,1,837,-78.902595,,,,,Taunton Eastbound @ Keith Ross,0,837:1,
43.9295007,1,839,-78.8938222,,,,,Eastbound @ 389 Taunton,0,839:1,
43.905794,1,680,-78.867149,,,,,Simcoe Northbound @ Parkwood (Lakeridge Health Oshawa),0,680:1,
43.888886,1,386,-78.902539,,,,,Dundas Westbound @ Garrard,0,386:1,
43.889552,1,1297,-78.855367,,,,,Olive Eastbound @ Court,0,1297:1,
43.89687291,1,475,-78.952685,,,,,Rossland Eastbound @ Centre,0,475:1,
43.824092,1,1701,-79.075833,,,,,Alyssum Eastbound @ Lublin,0,1701:1,
43.845427,1,93622,-79.019197,,,,,Harwood Southbound @ Harwood Plaza,0,936221,
43.880885,1,1058,-78.853414,,,,,Bloor Eastbound @ Albert,0,1058:1,
43.959762,2,3601,-78.914635,,,,,Windfields Farm Northbound @ Bandsman,0,3601:1,
43.868662,2,3510,-79.079043,,,,,Rossland Westbound @ Southcott,0,3510:1,
43.81946355,1,1703,-79.072533,,,,,Parkham Eastbound @ Sandy Beach,0,1703:1,
43.860563,2,266,-78.892761,,,,,Wentworth Westbound @ Forbes,0,266:1,
43.917737,1,593,-78.859627,,,,,Westbound @ 354 Rossland,0,593:1,
43.859031,2,268,-78.899876,,,,,Wentworth Westbound @ Thickson,0,268:1,
43.825697,2,1715,-79.060627,,,,,Westbound @ 1768 Clements,0,1715:1,
43.9563871247,2,3535,-78.8986459674,,,,,Britannia Westbound @ Simcoe,0,3535:1,
43.918907,1,591,-78.854902,,,,,Rossland Westbound @ Terrace,0,591:1,
43.888469,1,1080,-78.820015,,,,,Westbound @ 882 Bloor,0,1080:1,
43.8227518,1,1690,-79.1021915,,,,,Eastbound @ 957 Bayly,0,1690:1,
43.827022,2,1713,-79.054705,,,,,Clements Westbound @ Squires Beach,0,1713:1,
43.9296729,1,831,-78.893897,,,,,Westbound @ 418 Taunton,0,831:1,
43.9143679,1,3409,-78.9240014,,,,,Dryden Westbound @ Thickson,0,3409:1,
43.879701,2,2253,-79.044516,,,,,Westney Northbound @ Telford,0,2253:1,
43.957026,2,94107,-78.965508,,,,,Vipond Westbound @ Montgomery,0,941071,
43.894635,2,3415,-78.916395,,,,,Thickson Southbound @ Manning,0,3415:1,
43.83001,1,2066,-79.014268,,,,,Northbound @ 819 Harwood,0,2066:1,
43.822811,1,2060,-79.014773,,,,,Clover Ridge Southbound @ Bolland,0,2060:1,
43.836837,1,1922,-79.099105,,,,,Glenanna Westbound @ Listowell,0,1922:1,
44.093711,2,3300,-78.963408,,,,,Highway 7A Westbound @ SmartCentres Port Perry,0,3300:1,
43.895243,1,473,-78.959856,,,,,Rossland Eastbound @ Cochrane,0,473:1,
43.893793,2,1360,-78.872903,,,,,Park Southbound @ Pine,0,1360:1,
43.911656,1,93338,-78.788656,,,,,Trulls Northbound @ Highway 2,0,93338:1,
43.912153,2,1432,-78.688526,,,,,King Westbound @ Temperance,0,1432:1,
43.861263,1,2241,-79.025056,,,,,Kingston Eastbound @ Harwood,0,2241:1,
43.836126,1,2068,-79.014843,,,,,Northbound @ 655 Harwood,0,2068:1,
43.775976,2,93997,-79.250532,,,,,Grangeway Southbound @ Progress,0,939971,
43.839531,2,3330,-79.020066,,,,,Ajax Community Centre,0,3330:1,
43.858568,1,93387,-79.088681,,,,,Major Oaks Northbound @ Pepperwood,0,93387:1,
43.8952726,2,2730,-79.0431068,,,,,Taunton Westbound @ Harwood,0,2730:1,
43.8881292,1,1276,-78.8711817,,,,,Gibb Westbound @ Montrave,0,1276:1,
43.877187,1,3295,-79.038698,,,,,Rossland Eastbound @ Seggar,0,3295:1,
43.819269,2,2016,-79.019469,,,,,Finley Southbound @ Lake Driveway,0,2016:1,
43.889169,1,2595,-78.877279,,,,,Oshawa Centre Terminal,0,2595:1,
43.908346,1,1499,-78.678921,,,,,Prince Eastbound @ Liberty (Lakeridge Health Bowmanville),0,1499:1,
43.820127,1,3590,-79.114142,,,,,Kingston Westbound @ Delta,0,3590:1,
43.919621,1,93330,-78.790942,,,,,George Reynolds Westbound @ Trulls,0,93330:1,
43.839231,1,93192,-79.0897,,,,,Glenanna Eastbound @ Fieldlight,0,93192,
43.935955,1,827,-78.865774,,,,,Taunton Westbound @ Naples,0,827:1,
43.943679,1,648,-78.840306,,,,,Grandview Northbound @ Park Ridge,0,648:1,
43.856922,1,971,-78.860568,,,,,Renaissance Westbound @ Beaverbrook,0,971:1,
43.880069,2,2249,-79.04484,,,,,Westney Southbound @ Telford,0,2249:1,
43.937589,1,825,-78.858528,,,,,Taunton Westbound @ Wilson (East side stop),0,825:1,
43.89159,1,205,-78.947226,,,,,Brock Street Southbound @ Starr (South side stop),0,205:1,
43.854933,2,973,-78.874097,,,,,Phillip Murray Westbound @ Skae,0,973:1,
43.8568849,1,965,-78.8531541,,,,,Lakeview Eastbound @ Lakemount,0,965:1,
43.88908,1,93024,-78.892506,,,,,Thornton Southbound @ Monaghan (Trent University Oshawa),0,93024:1,
43.856992,1,963,-78.857805,,,,,Renaissance Eastbound @ Charter,0,963:1,
43.8413,1,1962,-79.073371,,,,,Pickering Parkway Eastbound @ Dreyber,0,1962:1,
43.864875,1,987,-78.8492,,,,,Cedar Northbound @ Banff,0,987:1,
43.939427,1,646,-78.838566,,,,,Grandview Northbound @ Glenbourne,0,646:1,
43.923214,1,384,-78.921678,,,,,Taunton Eastbound @ Tom Edwards,0,384:1,
43.946166,1,90044,-78.862296,,,,,Coldstream Westbound @ Wilson,0,90044:1,
43.909586,1,603,-78.896599,,,,,Rossland Westbound @ Waverly,0,603:1,
43.8365894,1,2094,-79.0042527,,,,,Pickering Beach Northbound @ Rollo (North stop),0,2094:1,
43.877689,1,3111,-78.844014,,,,,Ritson Southbound @ Wolfe,0,3111:1,
43.844672,2,1869,-79.099164,,,,,Finch Westbound @ Maple Ridge,0,1869:1,
43.819181,2,1709,-79.05741,,,,,McKay Northbound @ Montgomery Park,0,1709:1,
43.915641,2,93738,-78.918736,,,,,Dryden Eastbound @ Steele Valley,0,937381,
43.880241,1,1057,-78.856285,,,,,Bloor Eastbound @ Simcoe,0,1057:1,
44.089871,1,2475,-78.955184,,,,,Old Simcoe Northbound @ Jeffrey,0,2475:1,
43.8442107455,2,3054,-79.0060218545,,,,,Pickering Beach Southbound @ Michaelman,0,3054:1,
43.818102,1,1525,-79.145893,,,,,Hogarth Eastbound @ Rockwood,0,1525:1,
43.867969,1,94083,-79.083181,,,,,Brock Road Southbound @ Rossland,0,940831,
43.93288,2,3533,-78.87956,,,,,Taunton Westbound @ Simcoe,0,3533:1,
43.92727829,1,640,-78.838302,,,,,Grandview Northbound @ Lindsay,0,640:1,
43.889813,1,93609,-78.984482,,,,,Rossland Westbound @ Des Newman,0,936091,
43.906573,2,455,-78.910464,,,,,Rossland Westbound @ Garrard,0,455:1,
43.89545963,1,1342,-78.801444,,,,,Glenabbey Westbound @ Auburn,0,1342:1,
43.8864985317,2,93765,-78.8474693931,,,,,Dean Westbound @ Ritson,0,937651,
44.074635,2,2469,-78.9362,,,,,Simcoe Southbound @ Scugog Line 4,0,2469:1,
44.08405984,2,2473,-78.95354168,,,,,King Westbound @ Old Simcoe,0,2473:1,
43.86968,1,989,-78.851091,,,,,Cedar Northbound @ Wentworth,0,989:1,
43.905816,1,1135,-78.821771,,,,,King Westbound @ Kingsway College,0,1135:1,
43.873776,2,214,-78.939683,,,,,Brock Street Southbound @ Trent,0,214:1,
43.8993868,2,2401,-79.0245374,,,,,Taunton Eastbound @ Gillett,0,2401:1,
43.849663,2,3052,-79.007221,,,,,Salem Southbound @ Lord,0,3052:1,
43.781656,2,93994,-79.234801,,,,,Progress Westbound @ Markham Road,0,939941,
43.90656,1,1133,-78.81421,,,,,King Westbound @ Townline,0,1133:1,
43.823696,2,3076,-79.034343,,,,,Lake Driveway Southbound @ Hawkins,0,3076:1,
43.7923,1,93255,-79.1639,,,,,Ellesmere Eastbound @ Meadowvale,0,93255:1,
43.878406,1,1055,-78.864296,,,,,Eastbound @ 249 Bloor,0,1055:1,
43.890656,2,3309,-78.8601,,,,,Elm Westbound @ Simcoe,0,3309:1,
43.859848,1,93388,-79.089555,,,,,Major Oaks Northbound @ Dellbrook,0,93388:1,
43.888373,1,453,-78.903884,,,,,Dundas Eastbound @ Kendalwood,0,453:1,
43.93236901,1,711,-78.87899819,,,,,Simcoe Southbound @ Taunton,0,711:1,
43.869601,1,334,-78.918607,,,,,Eastbound @ 107 Consumers,0,334:1,
43.908529,2,184,-78.954721,,,,,Brock Street Northbound @ Woodlands,0,184:1,
43.999914,2,2461,-78.919399,,,,,Simcoe Southbound @ Howden,0,2461:1,
43.862945,1,93465,-78.881117,,,,,Wentworth Eastbound @ Thornton,0,93465:1,
43.91494265,1,186,-78.957317,,,,,Brock Street Northbound @ Taunton,0,186:1,
43.85395,2,93555,-78.973499,,,,,Victoria Westbound @ Halls,0,999951,
43.86114517,1,995,-78.852973,,,,,Oxford Northbound @ Emerald,0,995:1,
44.024868,2,2463,-78.924563,,,,,Simcoe Northbound @ Snow Ridge,0,2463:1,
43.9056983,1,486,-78.9135536,,,,,Rossland Eastbound @ Orvis,0,486:1,
43.874998,2,3573,-79.09145,,,,,Tillings Southbound @ Scenic Lane,0,3573:1,
43.786768,1,7698,-79.187251,,,,,Ellesmere Eastbound @ Military Trail,0,7698:1,
43.876669,2,3563,-78.837602,,,,,Wentworth Westbound @ Nelson,0,3563:1,
43.813826,1,1685,-79.103099,,,,,Oklahoma Westbound @ West Shore,0,1685:1,
43.797935,2,94016,-79.21787,,,,,Sheppard Eastbound @ Neilson,0,940161,
43.843629,1,1964,-79.070464,,,,,Eastbound @ 1733 Pickering Parkway,0,1964:1,
43.884732,1,1118,-78.830694,,,,,Farewell Southbound @ Bloor,0,1118:1,
43.83097019,1,1610,-79.09672757,,,,,Kingston Westbound @ Walnut,0,1610:1,
43.90105,2,94098,-78.876259,,,,,Adelaide Eastbound @ Park,0,940981,
43.96308,2,93026,-78.90291,,,,,Simcoe Southbound @ Windfields Farm,0,93026:1,
43.856864,1,962,-78.860358,,,,,Renaissance Eastbound @ Beaverbrook,0,962:1,
43.8767817,1,404,-78.9562584,,,,,Dundas Westbound @ Wellington,0,404:1,
43.896029,1,2398,-79.038914,,,,,Eastbound @ 43 Taunton,0,2398:1,
43.827085,1,1693,-79.092836,,,,,Bayly Eastbound @ St Martins,0,1693:1,
43.901042,2,3117,-78.854433,,,,,Ritson Southbound @ Bond,0,3117:1,
43.8266135,2,1714,-79.0566667,,,,,Westbound @ 1850 Clements,0,1714:1,
43.85995852,2,93243,-78.89472,,,,,Wentworth Eastbound @ Forbes,0,93243:1,
43.887927,1,94056,-78.902869,,,,,Kendalwood Southbound @ Dundas,0,940561,
43.823728,1,1691,-79.100129,,,,,Eastbound @ 1001 Bayly,0,1691:1,
43.8839814,1,449,-78.914476,,,,,Northbound @ 155 Glen Hill,0,449:1,
43.825056,1,93497,-79.062901,,,,,Clements Eastbound @ Brock Road,0,93497:1,
43.846859,1,1866,-79.089437,,,,,Finch Westbound @ Rosefield,0,1866:1,
43.858814,2,3105,-78.950286,,,,,Victoria Eastbound @ Bayside Gate,0,3105:1,
43.861847,1,2151,-79.026339,,,,,Harwood Southbound @ Kingston,0,2151:1,
43.905218,2,93012,-79.000873,,,,,Taunton Westbound @ Lake Ridge,0,93012:1,
43.892828,1,1261,-78.841487,,,,,Olive Westbound @ Highland,0,1261:1,
43.88025819,2,92003,-78.844845,,,,,Northbound @ 753 Ritson,0,92003:1,
43.8922679,2,1363,-78.8719904,,,,,Park Northbound @ John,0,1363:1,
43.891112,2,470,-78.978819,,,,,Rossland Westbound @ McQuay,0,470:1,
43.913835,1,3107,-78.924456,,,,,Thickson Northbound @ Dryden,0,3107:1,
43.835851,1,93542,-79.09007,,,,,Kingston Eastbound @ Liverpool,0,93542:1,
43.89412,1,472,-78.96458,,,,,Rossland Eastbound @ Country Lane,0,472:1,
43.891968,2,1361,-78.872083,,,,,Park Southbound @ Elmgrove,0,1361:1,
43.880023,1,3315,-79.026765,,,,,Rossland Westbound @ Harwood,0,3315:1,
43.897281,2,659,-78.865958,,,,,Centre Southbound @ King,0,659:1,
43.898752,1,30,-78.93967,,,,,Garden Southbound @ Rossland (Durham Region Headquarters),0,30:1,
43.825146,1,1716,-79.063235,,,,,Clements Westbound @ Brock Road,0,1716:1,
43.861986,1,93028,-78.834452,,,,,Lakeview Westbound @ Birchcliffe,0,93028:1,
43.82833209,1,2065,-79.013822,,,,,Harwood Northbound @ Gorton,0,2065:1,
43.87529628,1,1001,-78.856489,,,,,Northbound @ 825 Glen,0,1001:1,
44.111357,1,2749,-78.950491,,,,,Northbound @ 15929 Simcoe St,0,2749:1,
43.890098,2,1267,-78.857947,,,,,Albert Northbound @ Barrie,0,1267:1,
43.887996,2,664,-78.859288,,,,,Simcoe Southbound @ Royal,0,664:1,
43.83263,1,2067,-79.01477,,,,,Northbound @ 721 Harwood,0,2067:1,
43.922125,1,93370,-78.84209,,,,,Harmony Southbound @ Rossland,0,93370:1,
43.856625,1,2156,-79.023745,,,,,Harwood Northbound @ Doric,0,2156:1,
43.839809,1,2079,-79.018227,,,,,Harwood Southbound @ Falby,0,2079:1,
43.822975,2,3081,-79.027087,,,,,Parkes Westbound @ Farrow,0,3081:1,
43.893281,1,1302,-78.839043,,,,,Olive Eastbound @ Windsor,0,1302:1,
43.935355,2,190,-78.961073,,,,,Baldwin Northbound @ Robmar,0,190:1,
43.85641,1,964,-78.855429,,,,,Lakeview Eastbound @ Lakefield,0,964:1,
43.875032,1,1015,-78.860548,,,,,Malaga Eastbound @ Oxford (West side stop),0,1015:1,
43.894358,1,1304,-78.834306,,,,,Olive Eastbound @ Poplar,0,1304:1,
43.87507063,1,1017,-78.85656,,,,,Southbound @ 830 Glen,0,1017:1,
43.887291,1,1277,-78.874471,,,,,Gibb Westbound @ Grenfell,0,1277:1,
43.906068,1,879,-78.856466,,,,,Ritson Northbound @ Adelaide,0,879:1,
43.808908,1,1508,-79.1325431,,,,,Altona Northbound @ Kingston,0,1508:1,
43.89628,1,559,-78.895698,,,,,Thornton Southbound @ Adelaide (South side stop),0,559:1,
43.905817,1,1198,-78.820278,,,,,King Eastbound @ Rockcliffe,0,1198:1,
43.903,2,655,-78.866169,,,,,Simcoe Southbound @ Adelaide,0,655:1,
43.909126,2,198,-78.955175,,,,,Brock Street Southbound @ Whitburn,0,198:1,
43.876637,2,3569,-78.849958,,,,,Simcoe Southbound @ Whiting,0,3569:1,
43.9463599,1,649,-78.8414887,,,,,Grandview Northbound @ Appleby,0,649:1,
43.912489,1,599,-78.883143,,,,,Rossland Westbound @ Glencairn,0,599:1,
43.843166,1,1890,-79.105023,,,,,Finch Eastbound @ Dixie,0,1890:1,
43.847684,1,1971,-79.06826,,,,,Bainbridge Westbound @ Burnside,0,1971:1,
43.848587,1,1724,-79.074114,,,,,Brock Road Northbound @ Kingston,0,1724:1,
43.955878,2,3128,-78.893451,,,,,Britannia Eastbound @ Bridle,0,3128:1,
43.913236,1,3126,-78.848778,,,,,Wilson Northbound @ Hillcroft,0,3126:1,
43.839791,1,1961,-79.072916,,,,,Pickering Parkway Northbound @ Portland,0,1961:1,
43.93385593,1,1356,-78.872776,,,,,Mary Northbound @ Taunton,0,1356:1,
43.839393,2,3097,-79.023607,,,,,Monarch Northbound @ Centennial,0,3097:1,
43.901499,2,3118,-78.854417,,,,,Ritson Northbound @ Richmond,0,3118:1,
43.933817,1,643,-78.836078,,,,,Grandview Northbound @ Summitview (South stop),0,643:1,
43.896689,1,93342,-78.798658,,,,,Glenabbey Westbound @ Robert Adams,0,93342:1,
43.8600147,1,93115,-78.9446226,,,,,Victoria Eastbound @ Gordon (Abilities Centre),0,93115:1,
43.868608,1,94082,-79.082929,,,,,Brock Road Northbound @ Rossland,0,940821,
43.927739,1,641,-78.836174,,,,,Grandview Northbound @ Grandlea,0,641:1,
43.908291,2,2704,-78.987629,,,,,Taunton Westbound @ Coronation,0,2704:1,
43.7801742075,2,94002,-79.2434328273,,,,,Progress Eastbound @ Bellamy,0,940021,
43.812872,1,93222,-79.10702,,,,,Oklahoma Eastbound @ Hillcrest,0,93222:1,
44.111917,2,2750,-78.953783,,,,,Reach Westbound @ Carlan,0,2750:1,
43.848164,2,2310,-78.999175,,,,,Bayly Eastbound @ Shoal Point,0,2310:1,
43.848133,1,1969,-79.065265,,,,,Marshcourt Northbound @ Bainbridge,0,1969:1,
43.902683,1,483,-78.926736,,,,,Rossland Eastbound @ Overlord,0,483:1,
43.942843,1,800,-78.84021,,,,,Grandview Southbound @ Park Ridge,0,800:1,
44.09017,1,2741,-78.948845,,,,,Union Northbound @ Josephine,0,2741:1,
43.840417,1,2322,-79.035039,,,,,Bayly Westbound @ Westney,0,2322:1,
43.833567,1,1764,-79.064971,,,,,Bayly Eastbound @ Toy,0,1764:1,
43.898076,2,94091,-78.890673,,,,,Adelaide Westbound @ Waverley,0,940911,
43.843273,1,90016,-79.067939,,,,,Westbound @ 1766 Pickering Parkway,0,90016:1,
43.8419865,1,2320,-79.0278284,,,,,Bayly Westbound @ Mackenzie,0,2320:1,
43.90579242,1,1229,-78.780964,,,,,Avondale Southbound @ Brownstone,0,1229:1,
43.832321,1,1762,-79.070556,,,,,Bayly Eastbound @ Salk,0,1762:1,
43.843281,1,2318,-79.021975,,,,,Bayly Westbound @ Woodchester,0,2318:1,
43.848198,2,58,-78.945576,,,,,Ontario Shores (West Entrance),0,58:1,
43.886887,1,93348,-78.806272,,,,,Grandview Westbound @ Wesley,0,93348:1,
43.92785527,1,806,-78.836264,,,,,Grandview Southbound @ Grandlea,0,806:1,
43.813811,1,93224,-79.102832,,,,,Oklahoma Eastbound @ West Shore,0,93224:1,
43.908585,1,1221,-78.797674,,,,,Highway 2 Westbound @ Prestonvale,0,1221:1,
43.92517,1,808,-78.83939,,,,,Grandview Southbound @ Corbetts,0,808:1,
43.8709498,2,3430,-79.0630705,,,,,Rossland Eastbound @ Church,0,3430:1,
43.909942,2,871,-78.858356,,,,,Ritson Southbound @ Rolson,0,871:1,
43.829869,1,1756,-79.120489,,,,,Whites Southbound @ Strouds,0,1756:1,
43.905928,1,1136,-78.827635,,,,,King Westbound @ Keewatin,0,1136:1,
43.909137,1,1227,-78.778369,,,,,Sandringham Westbound @ Short,0,1227:1,
43.836609,1,1754,-79.123353,,,,,Southbound @ 1956 Whites,0,1754:1,
43.906087,1,1134,-78.818826,,,,,King Westbound @ Athabasca,0,1134:1,
43.858353,2,93554,-78.953388,,,,,Victoria Westbound @ Jeffery,0,999961,
43.850332,1,3061,-78.989176,,,,,Bayly Eastbound @ Audley,0,3061:1,
43.9006827,1,481,-78.9356953,,,,,Rossland Eastbound @ Bassett,0,481:1,
43.910955,2,372,-78.976445,,,,,Taunton Westbound @ Country Lane,0,372:1,
43.92128128,1,867,-78.863175,,,,,Ritson Southbound @ Darcy,0,867:1,
43.892561,2,93611,-78.972611,,,,,Rossland Eastbound @ Coronation,0,936111,
43.902746,2,1191,-78.841037,,,,,Eastbound @ 623 King,0,1191:1,
43.92503569,1,865,-78.864766,,,,,Ritson Southbound @ Highgate,0,865:1,
43.872706,1,337,-78.905592,,,,,Stellar Eastbound @ Thickson,0,337:1,
43.821614,2,3261,-79.028055,,,,,Parkes Eastbound @ Farrow,0,3261:1,
43.870713392,1,335,-78.9128184418,,,,,Consumers Eastbound @ Sunray,0,335:1,
43.889102,2,3227,-78.866981,,,,,Gibb Westbound @ Nassau,0,3227:1,
44.106913,1,2433,-79.115832,,,,,Franklin Northbound @ Parkside,0,2433:1,
43.86702,1,1588,-79.00077,,,,,Kingston Westbound @ Alexanders Crossing,0,1588:1,
43.9084673,1,93186,-78.9220958,,,,,Thickson Northbound @ Winterberry,0,93186:1,
43.873879,2,3570,-78.844625,,,,,Simcoe Southbound @ Wentworth,0,3570:1,
43.82025,1,1645,-79.105278,,,,,West Shore Southbound @ Vistula,0,1645:1,
43.89052,2,94059,-78.97844,,,,,McQuay Southbound @ Rossland,0,940591,
43.8863306,1,93054,-78.8793725,,,,,Gibb Westbound @ Stevenson (East side stop),0,93054:1,
43.929131,2,3343,-78.8556,,,,,Wilson Northbound @ Tiffany,0,3343:1,
43.854657,2,1600,-79.05529,,,,,Kingston Westbound @ Church,0,1600:1,
43.842961,1,1963,-79.073721,,,,,Pickering Parkway Eastbound @ Denmar,0,1963:1,
43.9226613,2,3341,-78.852739,,,,,Wilson Northbound @ Terrace,0,3341:1,
43.832968,1,93112,-79.0851,,,,,Pickering Parkway Terminal,0,93112:1_merged_999964,
43.832968,1,93112,-79.0851,,,,,Pickering Parkway Terminal Platform B12,0,93112:1_merged_999968,
43.956074,2,94108,-78.969778,,,,,Vipond Westbound @ Ferguson,0,941081,
43.935314,2,912,-78.847715,,,,,Harmony Southbound @ Grand Ridge,0,912:1,
43.824613,1,1520,-79.148501,,,,,Pine Grove Westbound @ Rockwood,0,1520:1,
43.808712,1,93060,-79.131154,,,,,Kingston Westbound @ Altona,0,93060:1,
43.883402,1,2172,-79.011115,,,,,Rossland Eastbound @ Rushworth,0,2172:1,
43.87956,1,3110,-78.844802,,,,,Ritson Southbound @ Conant,0,3110:1,
43.826981,2,93500,-79.054408,,,,,Clements Eastbound @ Squires Beach,0,93500:1,
43.844242,2,2316,-79.017732,,,,,Bayly Westbound @ Harwood,0,2316:1,
43.955218,2,93564,-78.884259,,,,,Britannia Westbound @ Pindar,0,935641,
43.896906,1,2399,-79.034803,,,,,Taunton Eastbound @ Middlecote,0,2399:1,
43.821685,2,93502,-79.051934,,,,,Squires Beach Southbound @ McKay,0,93502:1,
43.861691,1,64,-78.937137,,,,,Victoria Eastbound @ Charles,0,64:1,
44.104684,1,2429,-79.111752,,,,,Reach Eastbound @ Hamilton,0,2429:1,
43.968094,1,505,-78.948934,,,,,Carnwith Westbound @ Thickson,0,505:1,
43.935668,1,1144,-78.847728,,,,,Harmony Northbound @ Grand Ridge,0,1144:1,
43.858383,1,1850,-79.081826,,,,,Dellbrook Westbound @ Denby,0,1850:1,
43.848622,1,2328,-79.030842,,,,,Fairall Westbound @ Dowty,0,2328:1,
43.917231,1,1142,-78.839598,,,,,Northbound @ 443 Harmony,0,1142:1,
43.874193,1,2146,-79.024716,,,,,Harwood Southbound @ Hibbard,0,2146:1,
43.88843361,1,277,-78.913508,,,,,Thickson Northbound @ Crawforth,0,277:1,
43.831147,1,2549,-79.084237,,,,,Pickering Station,0,2549:1,
43.889878,2,93350,-78.814294,,,,,Bloor Westbound @ Grandview,0,93350:1,
43.8802553,1,2144,-79.0273906,,,,,Harwood Southbound @ Rossland,0,2144:1,
43.92126249,1,885,-78.862948,,,,,Ritson Northbound @ Darcy,0,885:1,
43.885035,2,2174,-79.004013,,,,,Rossland Eastbound @ Audley,0,2174:1,
43.86425,1,1030,-78.83846,,,,,Valley Westbound @ Ritson,0,1030:1,
43.929665,1,93365,-78.845218,,,,,Harmony Southbound @ Beatrice,0,93365:1,
43.925002,1,887,-78.864607,,,,,Ritson Northbound @ Highgate,0,887:1,
43.875507,1,1002,-78.858799,,,,,Malaga Westbound @ Oxford,0,1002:1,
43.9560241,1,513,-78.9694672,,,,,Vipond Eastbound @ Ferguson,0,513:1,
43.84443987,2,92045,-79.025808,,,,,Monarch Southbound @ Stonewood,0,92045:1,
43.838287,1,1935,-79.093668,,,,,Glenanna Eastbound @ Glendale,0,1935:1,
43.9570306,2,511,-78.9612058,,,,,Campbell Eastbound @ Baldwin,0,511:1,
43.87268331,1,1000,-78.855412,,,,,Glen Northbound @ Medina,0,1000:1,
43.884761,2,92043,-79.046574,,,,,Westney Northbound @ Williamson,0,92043:1,
43.882846,1,432,-78.928486,,,,,Dundas Eastbound @ Craydon,0,432:1,
43.94919,2,3542,-78.896877,,,,,Simcoe Southbound @ Conlin,0,3542:1,
43.836731,1,1933,-79.099024,,,,,Glenanna Eastbound @ Listowell,0,1933:1,
43.891958,1,1176,-78.888111,,,,,King Eastbound @ Waverly,0,1176:1,
43.812717,1,1777,-79.123765,,,,,Kingston Eastbound @ Rosebank,0,1777:1,
43.819366,1,1779,-79.114699,,,,,Kingston Eastbound @ Whites,0,1779:1,
43.868324,1,3435,-79.079724,,,,,Rossland Eastbound @ Southcott,0,3435:1,
43.96165,2,3544,-78.97506,,,,,Carnwith Westbound @ Darius Harns,0,3544:1,
43.890669,1,1174,-78.894721,,,,,King Westbound @ Thornton,0,1174:1,
43.86166688,2,265,-78.88778,,,,,Wentworth Westbound @ Boundary (West side stop),0,265:1,
43.878735,2,3572,-79.092628,,,,,Zents Westbound @ Tillings,0,3572:1,
43.885076,1,1284,-78.884308,,,,,Gibb Eastbound @ Waverly,0,1284:1,
43.872514,2,168,-78.938948,,,,,Brock Street Northbound @ Burns,0,168:1,
44.107337,1,2501,-78.94889,,,,,Simcoe Southbound @ Balsam,0,2501:1,
43.88625932,1,1286,-78.878706,,,,,Gibb Eastbound @ Stevenson (East side stop),0,1286:1,
43.885654,1,438,-78.903502,,,,,Nichol Eastbound @ Kirby,0,438:1,
43.892801,1,1301,-78.841125,,,,,Olive Eastbound @ Highland,0,1301:1,
44.096353,2,2507,-78.960274,,,,,Highway 7A Southbound @ Scugog Line 6,0,2507:1,
43.936894,1,693,-78.880577,,,,,Simcoe Northbound @ Glovers,0,693:1,
43.954353,2,3131,-78.867182,,,,,Conlin Eastbound @ Wilson,0,3131:1,
43.893846,1,1303,-78.836642,,,,,Olive Eastbound @ Guelph,0,1303:1,
43.940856,2,695,-78.88569,,,,,Simcoe Northbound @ Selleck,0,695:1,
43.83803,1,1921,-79.095309,,,,,Glenanna Westbound @ Bronte,0,1921:1,
43.829787,1,1771,-79.082867,,,,,Westbound @ 1400 Bayly,0,1771:1,
43.8711003,2,93147,-79.0177387,,,,,Salem Southbound @ Kerrison,0,93147:1,
43.911594,1,1218,-78.779235,,,,,Highway 2 Westbound @ Courtice,0,1218:1,
44.110223,2,2515,-78.95,,,,,Simcoe Northbound @ Beech,0,2515:1,
43.8901437,1,2604,-78.8622203,,,,,Gibb Westbound @ Centre,0,2604:1,
43.8568676,1,3322,-79.0418045,,,,,Westney Southbound @ Kingston (South side stop),0,3322:1,
44.093814,2,2517,-78.955567,,,,,Old Simcoe Southbound @ Victoria,0,2517:1,
43.955959,2,3627,-78.961368,,,,,Baldwin Southbound @ Cassels,0,36271,
43.915824,2,574,-78.867671,,,,,Rossland Eastbound @ Grierson,0,574:1,
43.8431712692,1,2305,-79.0217873517,,,,,Bayly Eastbound @ Kitney,0,2305:1,
43.8671137,2,93149,-79.0176202,,,,,Salem Southbound @ Ringer,0,93149:1,
43.897623,2,1242,-78.863176,,,,,King Eastbound @ Simcoe,0,1242:1,
43.9138579,2,93725,-78.756069,,,,,Durham Highway 2 Eastbound @ Solina,0,937251,
43.877851,2,93707,-78.866602,,,,,Bloor Eastbound @ Park,0,937071,
43.908213,2,3165,-78.711662,,,,,Green Southbound @ South Of Highway 2,0,3165:1,
43.842681,1,2319,-79.024703,,,,,Bayly Westbound @ Monarch,0,2319:1,
43.961855,2,3618,-78.945277,,,,,Thickson Northbound @ Blackfriar,0,36181,
43.8506919,1,93058,-78.94358167,,,,,Gordon Westbound @ James Govan,0,93058:1,
43.900029,2,657,-78.867222,,,,,Centre Southbound @ William,0,657:1,
43.919929,1,588,-78.850545,,,,,Rossland Westbound @ Wilson,0,588:1,
43.858563,1,1849,-79.080418,,,,,Dellbrook Westbound @ Melman,0,1849:1,
43.854784,2,1847,-79.077417,,,,,Brock Road Northbound @ Major Oaks,0,1847:1,
44.097748,2,2509,-78.955305,,,,,Scugog Eastbound @ Old Simcoe,0,2509:1,
43.846629,2,2313,-79.007018,,,,,Bayly Westbound @ Salem,0,2313:1,
43.836255,1,1930,-79.106323,,,,,Glenanna Southbound @ Heathside,0,1930:1,
43.8324969,1,1767,-79.0705011,,,,,Bayly Westbound @ Salk,0,1767:1,
43.900141,1,93379,-78.880768,,,,,Adelaide Westbound @ Gibbons,0,93379:1,
43.9265,1,834,-78.907938,,,,,Taunton Westbound @ Thornton,0,834:1,
43.826658,1,2032,-79.009997,,,,,Clover Ridge Westbound @ Dorling,0,2032:1,
43.8336033,1,1765,-79.0656863,,,,,Bayly Westbound @ Toy,0,1765:1,
43.9263552,1,836,-78.907676,,,,,Taunton Eastbound @ Thornton,0,836:1,
43.881084,2,396,-78.936954,,,,,Dundas Westbound @ Pine,0,396:1,
43.829063,1,2030,-79.00503,,,,,Clover Ridge Southbound @ Gregory,0,2030:1,
43.937445,1,846,-78.858353,,,,,Taunton Eastbound @ Wilson (East side stop),0,846:1,
43.944594,1,90038,-78.8507694,,,,,Coldstream Eastbound @ Harmony,0,90038:1,
43.879998,1,398,-78.941772,,,,,Dundas Westbound @ Brock Street,0,398:1,
43.907937,1,1228,-78.779807,,,,,Avondale Southbound @ Stagemaster,0,1228:1,
43.91489,2,3421,-78.92186,,,,,Dryden Westbound @ Waller,0,3421:1,
43.893721,1,279,-78.915756,,,,,Thickson Northbound @ Dalton,0,279:1,
43.922151,2,580,-78.853065,,,,,Terrace Eastbound @ Wilson,0,580:1,
43.833996,1,1984,-79.111275,,,,,Fairport Northbound @ Bonita,0,1984:1,
43.858341,1,1855,-79.088725,,,,,Major Oaks Southbound @ Pepperwood,0,1855:1,
43.930783,1,840,-78.888058,,,,,Taunton Eastbound @ Northbrook,0,840:1,
43.92071,1,582,-78.84681,,,,,Rossland Eastbound @ Camelot,0,582:1,
43.801751,2,94021,-79.200009,,,,,Sheppard Eastbound @ Morningside,0,940211,
43.89277,2,93610,-78.972246,,,,,Rossland Westbound @ Coronation,0,936101,
43.859508,2,267,-78.897536,,,,,Wentworth Westbound @ Scotia,0,267:1,
43.914284,1,93323,-78.778853,,,,,Courtice Northbound @ Moyse,0,93323:1,
43.860608,2,2264,-79.041014,,,,,Westney Southbound @ Millington,0,2264:1,
43.919116,2,94039,-78.791855,,,,,Trulls Northbound @ George Reynolds,0,940391,
43.895089,1,2729,-79.042882,,,,,Taunton Eastbound @ Harwood,0,2729:1,
43.907642,1,1222,-78.803571,,,,,Highway 2 Westbound @ Centerfield,0,1222:1,
43.86482,1,2262,-79.039095,,,,,Southbound @ 350 Westney,0,2262:1,
43.849311,2,3049,-79.006791,,,,,Salem Northbound @ Lord,0,3049:1,
43.929188,2,689,-78.877303,,,,,Simcoe Northbound @ Orchard View,0,689:1,
43.909174,2,1220,-78.79601,,,,,Highway 2 Westbound @ Sandringham,0,1220:1,
43.89427409,1,543,-78.894577,,,,,Thornton Northbound @ Castlegrove,0,543:1,
43.946668,2,3608,-78.894075,,,,,Simcoe Northbound @ Founders,0,3608:1,
43.835113,2,1982,-79.111872,,,,,Fairport Southbound @ Voyager,0,1982:1,
43.930147,2,3269,-78.866844,,,,,Ritson Northbound @ Beatrice (North stop),0,3269:1,
43.869841,1,2161,-79.024135,,,,,Harwood Northbound @ Kerrison,0,2161:1,
43.90426723,1,1157,-78.837534,,,,,Bond Northbound @ Riverside,0,1157:1,
43.8955183,1,93138,-79.029968,,,,,Salem Southbound @ Dunwell Cr,0,93138:1,
43.8118895,1,93218,-79.1114637,,,,,Oklahoma Eastbound @ Whites,0,93218:1,
43.8364337,1,1923,-79.1013673,,,,,Glenanna Westbound @ Dixie,0,1923:1,
43.8911583,1,93141,-79.0385343,,,,,Harwood Northbound @ Haskell,0,93141:1,
43.88721,2,2256,-79.047648,,,,,Westney Northbound @ Curtis,0,2256:1,
43.78018,2,94054,-79.2444,,,,,Progress Westbound @ Corporate Drive,0,940541,
43.831796,1,2727,-79.115049,,,,,Strouds Westbound @ Spruce Hill,0,2727:1,
43.955498,2,94109,-78.972343,,,,,Vipond Westbound @ Darrius Harns,0,941091,
43.838707,1,1786,-79.086373,,,,,Kingston Eastbound @ Glenanna,0,1786:1,
43.898916,1,11,-78.939531,,,,,Garden Northbound @ Rossland (Durham Region Headquarters),0,11:1,
43.881886,2,2254,-79.045439,,,,,Northbound @ 1331 Westney,0,2254:1,
44.109968,2,2434,-79.117222,,,,,Franklin Northbound @ Brock Street,0,2434:1,
43.956693,2,3602,-78.913442,,,,,Windfields Farm Northbound @ Equestrian,0,3602:1,
43.822422,2,1780,-79.110401,,,,,Eastbound @ 817 Kingston,0,1780:1,
43.838224,1,1929,-79.109304,,,,,Glenanna Eastbound @ Brookshire,0,1929:1,
43.874749,2,2167,-79.04948,,,,,Rossland Eastbound @ Stevensgate,0,2167:1,
43.961779,2,3600,-78.909473,,,,,Windfields Farm Eastbound @ Kentucky Derby,0,3600:1,
43.879377,1,316,-78.909859,,,,,Thickson Southbound @ Long,0,316:1,
43.876463,1,2169,-79.041902,,,,,Rossland Eastbound @ Westney,0,2169:1,
43.899357,2,1151,-78.831854,,,,,Southbound @ 188 Harmony,0,1151:1,
43.8431731,1,1965,-79.0678524,,,,,Eastbound @ 1755 Pickering Parkway,0,1965:1,
43.8423437,1,2303,-79.025254,,,,,Bayly Eastbound @ Monarch,0,2303:1,
44.094332,2,2735,-78.947175,,,,,Union Southbound @ Major,0,2735:1,
43.8639584,1,92072,-79.0131049,,,,,Eastbound @ 257 Kingston Road East,0,92072:1,
44.091129,2,2737,-78.948551,,,,,Union Southbound @ Robin Trail,0,2737:1,
43.889751,2,94060,-78.973695,,,,,McQuay Eastbound @ Muir,0,940601,
43.879593,1,102,-78.965224,,,,,McQuay Northbound @ Kennett,0,102:1,
43.8486272,1,2311,-78.998021,,,,,Bayly Westbound @ Shoal Point,0,2311:1,
43.885318,2,2177,-79.00336,,,,,Rossland Westbound @ Audley,0,2177:1,
43.938789,1,848,-78.852387,,,,,Taunton Eastbound @ Harmony,0,848:1,
43.893474,1,310,-78.915889,,,,,Thickson Southbound @ Dalton,0,310:1,
43.904135,1,1159,-78.844005,,,,,Bond Westbound @ Claymore (West side stop),0,1159:1,
43.887478,1,2175,-78.993144,,,,,Rossland Eastbound @ Lake Ridge,0,2175:1,
43.937679,1,892,-78.870106,,,,,Ritson Northbound @ Ormond,0,892:1,
43.9104493,2,93731,-78.723765,,,,,Durham Highway 2 Eastbound @ Maple Grove,0,937311,
43.9437266,1,93425,-78.8514735,,,,,Harmony Southbound @ Coldstream,0,93425:1,
43.886499,1,1070,-78.806985,,,,,Grandview Eastbound @ Southdown,0,1070:1,
43.868016,1,329,-78.934571,,,,,Consumers Westbound @ Paisley,0,329:1,
43.96223,2,3543,-78.9725,,,,,Carnwith Westbound @ Bayern,0,3543:1,
43.959003,2,93553,-78.936407,,,,,Winchester Westbound @ Cachet,0,93553:1,
43.796173,2,94013,-79.226955,,,,,Sheppard Eastbound @ Lapsley,0,940131,
43.86262,2,318,-78.902447,,,,,Thickson Southbound @ Tricont,0,318:1,
43.907603,1,1147,-78.835614,,,,,Harmony Southbound @ Regent,0,1147:1,
43.851033,1,59,-78.94084,,,,,Eastbound @ 701 Gordon,0,59:1,
43.91292,1,1145,-78.83798,,,,,Harmony Southbound @ Adelaide,0,1145:1,
43.877058,2,272,-78.908542,,,,,Thickson Northbound @ Burns,0,272:1,
43.851303,2,57,-78.940748,,,,,Southbound @ 652 Gordon,0,57:1,
43.95347,2,3549,-78.9624,,,,,Baldwin Southbound @ Winchester,0,3549:1,
43.91268,1,3553,-78.77812,,,,,Courtice Northbound @ Highway 2,0,3553:1,
43.865547,2,270,-78.903392,,,,,Thickson Northbound @ Victoria,0,270:1,
43.91041,1,1456,-78.680907,,,,,King Eastbound @ Liberty,0,1456:1,
43.842824,2,3055,-79.00649,,,,,Pickering Beach Southbound @ Hickman,0,3055:1,
44.093705,2,2444,-79.035732,,,,,Reach Westbound @ Marsh Hill (Epsom),0,2444:1,
43.908465,1,565,-78.901066,,,,,Rossland Eastbound @ Thornton,0,565:1,
43.93408,2,3532,-78.87324,,,,,Taunton Eastbound @ Mary,0,3532:1,
43.81511785,2,93507,-79.070529,,,,,Sandy Beach Northbound @ Montgomery Park,0,93507:1,
43.816015,1,1541,-79.1358222,,,,,Altona Southbound @ Littleford,0,1541:1,
43.865496,1,2576,-78.93794,,,,,Whitby Station,0,2576:1,
44.107774,1,2442,-79.116345,,,,,Southbound @ 72 Franklin,0,2442:1,
43.850729,2,2351,-79.024869,,,,,Eastbound @ 87 Station,0,2351:1,
43.857059,1,984,-78.85286,,,,,Lakeview Westbound @ Lakemount,0,984:1,
43.8390289,1,1936,-79.0881538,,,,,Glenanna Southbound @ Kingston,0,1936:1,
43.962037,2,3592,-78.909043,,,,,Windfields Farm Westbound @ Kentucky Derby,0,3592:1,
43.943641,1,698,-78.895505,,,,,Ontario Tech / Durham College North Campus,0,698:1,
43.88831017,2,3038,-79.026786,,,,,Salem Southbound @ Thackery,0,3038:1,
43.8682969,1,327,-78.9286565,,,,,Consumers Westbound @ Garden,0,327:1,
43.884407,2,3041,-79.021938,,,,,Salem Northbound @ Harper Hill,0,3041:1,
43.83762,1,1934,-79.096622,,,,,Glenanna Eastbound @ Bowler,0,1934:1,
43.886025,1,563,-78.891096,,,,,Thornton Southbound @ Donegal,0,563:1,
44.110346,1,2500,-78.950117,,,,,Simcoe Southbound @ Kellett,0,2500:1,
43.898832,1,464,-78.944604,,,,,Rossland Westbound @ Civic Centre Drive,0,464:1,
43.932478,1,1355,-78.87221,,,,,Mary Northbound @ Nonquon,0,1355:1,
43.817582,1,1674,-79.104031,,,,,West Shore Northbound @ Samford,0,1674:1,
43.874477,1,1096,-78.845479,,,,,Simcoe Northbound @ Wentworth,0,1096:1,
43.932443,1,93362,-78.857028,,,,,Wilson Northbound @ Beatrice,0,93362:1,
44.090628,2,2476,-78.955344,,,,,Old Simcoe Southbound @ Jeffrey,0,2476:1,
43.877762,2,93708,-78.868107,,,,,Bloor Westbound @ Park,0,937081,
43.928625,1,1353,-78.873907,,,,,Northbound @ 1185 Mary,0,1353:1,
43.899906,1,462,-78.939886,,,,,Rossland Westbound @ Garden (Durham Region Headquarters),0,462:1,
43.831821,1,2277,-79.032781,,,,,Westney Northbound @ Clements,0,2277:1,
43.837128,2,3057,-79.004638,,,,,Pickering Beach Southbound @ Foord,0,3057:1,
43.91884,1,93035,-78.85475,,,,,Rossland Eastbound @ Brentwood,0,93035:1,
44.086597,2,2474,-78.954981,,,,,Old Simcoe Northbound @ Barber,0,2474:1,
43.9144556,2,93724,-78.756297,,,,,Durham Highway 2 Westbound @ Solina,0,937241,
43.847287,1,93706,-79.020997,,,,,Hunt Westbound @ Harwood,0,937061,
43.807572,1,93061,-79.132422,,,,,Kingston Eastbound @ Altona,0,93061:1,
43.885318,2,94063,-78.968639,,,,,McQuay Southbound @ Guthrie,0,McQuay Southbound @ Guthrie1,
43.899898,1,94097,-78.881242,,,,,Adelaide Eastbound @ Gibbons,0,940971,
43.9141525,1,571,-78.8750487,,,,,Rossland Eastbound @ Christie,0,571:1,
43.87883,2,93146,-79.017271,,,,,Northbound @ 789 Salem,0,93146:1_merged_999969,
44.095613,2,2508,-78.960992,,,,,Highway 7A Northbound @ Scugog,0,2508:1,
43.905972,1,456,-78.912914,,,,,Rossland Westbound @ Tamarisk,0,456:1,
43.9151538,1,573,-78.8705428,,,,,Rossland Eastbound @ Simcoe,0,573:1,
43.836671,1,2080,-79.015332,,,,,Southbound @ 580 Harwood Avenue South (Lakeridge Health Ajax Pickering),0,2080:1,
43.89714,2,2603,-78.865282,,,,,King Eastbound @ Centre,0,2603:1,
43.907336,1,454,-78.90711,,,,,Rossland Westbound @ William Davidson,0,454:1,
43.894379,1,1343,-78.804111,,,,,Glenabbey Westbound @ Bruntsfield,0,1343:1,
43.898732,2,94096,-78.886166,,,,,Adelaide Eastbound @ Stevenson,0,940961,
44.108695,2,93740,-79.122934,,,,,Brock Street Eastbound @ Toronto Street,0,937401,
43.815712,2,93506,-79.059768,,,,,Montgomery Park Westbound @ Brock Road,0,93506:1,
43.87107,2,413,-78.98135,,,,,Dundas Eastbound @ Halls,0,413:1,
43.847742,1,2718,-79.001192,,,,,Bayly Eastbound @ Boone,0,2718:1,
43.938297,1,847,-78.854571,,,,,Taunton Eastbound @ Clearbrook,0,847:1,
43.872131,2,3296,-79.058372,,,,,Rossland Westbound @ Harkins,0,3296:1,
43.834101,1,92046,-79.023697,,,,,Clements Westbound @ MacKenzie,0,920461,
43.920654,2,579,-78.854051,,,,,Terrace Northbound @ Mayfair,0,579:1,
43.881326,1,103,-78.966408,,,,,McQuay Northbound @ Balsdon,0,103:1,
43.83837,1,1926,-79.109861,,,,,Glenanna Westbound @ Huntsmill,0,1926:1,
43.8852378,1,105,-78.968363,,,,,McQuay Northbound @ Guthrie,0,105:1,
43.955617,2,93354,-78.861844,,,,,Conlin Eastbound @ Riverton,0,93354:1,
43.95367,2,94115,-78.9102,,,,,Britannia Eastbound @ Windfields Farm,0,941151,
43.935467,2,93531,-78.873539,,,,,Mary Northbound @ Ormond,0,93531:1,
43.956073,2,3133,-78.846023,,,,,Grandview Southbound @ Woodstream,0,3133:1,
44.10319,2,93093,-78.99335,,,,,Reach Westbound @ Highway 7/12,0,93093:1,
43.877863,2,401,-78.95152,,,,,Dundas Westbound @ Cochrane,0,401:1,
43.8913759,1,542,-78.8933631,,,,,Thornton Northbound @ King,0,542:1,
43.949878,2,3135,-78.843025,,,,,Grandview Northbound @ Salmers,0,3135:1,
43.926963,1,1372,-78.872625,,,,,Beatrice Westbound @ Mary,0,1372:1,
43.89153,1,278,-78.914804,,,,,Thickson Northbound @ Pine Hills,0,278:1,
43.913854,2,94037,-78.789545,,,,,Trulls Northbound @ Nash,0,940371,
43.886802,1,1278,-78.87697,,,,,Westbound @ 450 Gibb,0,1278:1,
43.845325,1,94079,-79.094419,,,,,Liverpool Northbound @ Finch,0,940791,
43.843789,1,2072,-79.018082,,,,,Harwood Northbound @ Bayly,0,2072:1,
43.8972765,2,2407,-79.0342846,,,,,Taunton Westbound @ Middlecote,0,2407:1,
43.926397,2,714,-78.876283,,,,,Simcoe Southbound @ Beatrice,0,714:1,
43.857804,1,2265,-79.041983,,,,,Westney Southbound @ Kingston (North side stop),0,2265:1,
44.10026,2,93106,-78.94311,,,,,Scugog Eastbound @ High,0,93106:1,
43.888421,1,94055,-78.902732,,,,,Kendalwood Northbound @ Dundas,0,940551,
43.839992,2,2070,-79.017956,,,,,Harwood Northbound @ Falby,0,2070:1,
43.894509,2,2728,-79.045472,,,,,Taunton Eastbound @ Grainger,0,2728:1,
43.91197,1,93083,-78.971139,,,,,Eastbound @ 437 Taunton,0,93083:1,
43.839422,2,93944,-79.122716,,,,,Finch Eastbound @ Whites,0,939441,
43.83457,1,1740,-79.090142,,,,,Liverpool Southbound @ Kingston (South side stop),0,1740:1,
43.884089,1,2137,-79.028774,,,,,Harwood Northbound @ Woodcock,0,2137:1,
43.8202247,1,1513,-79.137773,,,,,Altona Northbound @ Granby,0,1513:1,
43.920326,1,93328,-78.788069,,,,,George Reynolds Westbound @ Sleeman,0,93328:1,
43.892535,1,1262,-78.842817,,,,,Olive Westbound @ Lasalle,0,1262:1,
43.893237,1,661,-78.863867,,,,,Centre Southbound @ John,0,661:1,
43.842456,2,1787,-79.081877,,,,,Kingston Eastbound @ Valley Farm,0,1787:1,
43.844243,1,2078,-79.018636,,,,,Harwood Southbound @ Bayly,0,2078:1,
43.890561,1,663,-78.862638,,,,,Centre Southbound @ Gibb,0,663:1,
43.893383,1,1260,-78.839031,,,,,Olive Westbound @ Wilson,0,1260:1,
43.829306,1,1746,-79.120021,,,,,Whites Northbound @ Strouds,0,1746:1,
43.84603,1,2334,-79.026071,,,,,Hunt Eastbound @ Monarch,0,2334:1,
43.848043,1,1944,-79.066569,,,,,Bainbridge Eastbound @ Fairfield,0,1944:1,
43.9015153,2,2405,-79.016607,,,,,Taunton Westbound @ Warner,0,2405:1,
43.982318,2,2457,-78.911266,,,,,Simcoe Northbound @ Columbus Road (Columbus),0,2457:1,
43.83815,1,1608,-79.08748,,,,,Kingston Westbound @ Glenanna,0,1608:1,
43.836551,1,1748,-79.123093,,,,,Northbound @ 1953 Whites,0,1748:1,
43.908797,1,725,-78.848831,,,,,Adelaide Eastbound @ Juliana,0,725:1,
43.837643,1,1731,-79.09107,,,,,Northbound @ 1851 Liverpool,0,1731:1,
43.826381,2,3084,-79.010986,,,,,Clover Ridge Eastbound @ Lawrie,0,3084:1,
43.866181,1,2286,-79.038754,,,,,Westney Northbound @ Magill,0,2286:1,
43.810129,1,1509,-79.133048,,,,,Altona Northbound @ Brookridge,0,1509:1,
43.937122,1,859,-78.869981,,,,,Ritson Southbound @ Ormond,0,859:1,
43.883934,1,669,-78.857287,,,,,Simcoe Northbound @ First,0,669:1,
43.8412546,1,2280,-79.0353224,,,,,Westney Northbound @ Bayly (North side stop),0,2280:1,
43.841082,2,1887,-79.114864,,,,,Finch Eastbound @ Fairport,0,1887:1,
44.094828,1,2744,-78.943075,,,,,Simcoe Southbound @ Vanedward,0,2744:1,
44.110199,2,2451,-78.961945,,,,,Reach Westbound @ Sherrington,0,2451:1,
43.862111,1,1593,-79.022563,,,,,Westbound @ 84 Kingston,0,1593:1,
43.8737626,1,2288,-79.0418886,,,,,Westney Northbound @ Sullivan,0,2288:1,
43.8374808,1,93196,-79.0771218,,,,,Westbound @ 1538 Pickering Parkway,0,93196:1,
43.8645589,2,90003,-79.02437412,,,,,Durham Centre Westbound @ Harwood,0,90003:1,
43.914802,1,650,-78.871282,,,,,Simcoe Southbound @ Rossland,0,650:1,
43.922437,2,193,-78.96051,,,,,Baldwin Southbound @ Robert Attersley (North side stop),0,193:1,
43.859995,1,1595,-79.031718,,,,,Westbound @ 132 Kingston,0,1595:1,
43.91044473,1,652,-78.869478,,,,,Simcoe Southbound @ Buckingham,0,652:1,
43.889791,1,108,-78.97464,,,,,McQuay Westbound @ Muir,0,108:1,
43.847673,1,1895,-79.08531,,,,,Finch Eastbound @ Valley Farm,0,1895:1,
43.935439,2,191,-78.96117,,,,,Baldwin Southbound @ Robmar,0,191:1,
43.8893175,1,1073,-78.805783,,,,,Townline Northbound @ Gord Vinson,0,1073:1,
43.861921,1,2158,-79.02605,,,,,Harwood Northbound @ Kingston,0,2158:1,
43.812462,1,93221,-79.1093492,,,,,Oklahoma Westbound @ Eyer,0,93221:1,
43.89651,1,93178,-78.86306,,,,,Simcoe Northbound @ Athol,0,93178:1,
43.979472,2,2459,-78.910124,,,,,Simcoe Southbound @ Westview (Columbus),0,2459:1,
43.81333974,1,93223,-79.10486,,,,,Oklahoma Eastbound @ Victory,0,93223:1,
43.947501,1,817,-78.850743,,,,,Delpark Homes Centre,0,817:1,
43.821887,1,93235,-79.078981,,,,,Krosno Eastbound @ Modlin,0,93235:1,
43.820443,1,3004,-79.140253,,,,,Waterford Eastbound @ Forestview,0,3004:1,
43.907209,2,199,-78.954297,,,,,Southbound @ 3626 Brock Street,0,199:1,
43.905788,1,752,-78.859632,,,,,Adelaide Westbound @ Division,0,752:1,
43.817692,1,1663,-79.104211,,,,,West Shore Southbound @ Samford,0,1663:1,
43.937886,1,90056,-78.859533,,,,,Wilson Southbound @ Taunton,0,90056:1,
43.901133,2,2402,-79.017127,,,,,Taunton Eastbound @ Warner,0,2402:1,
43.879998,1,941,-78.877266,,,,,Stevenson Northbound @ Laval,0,941:1,
43.8980427,1,1166,-78.8659934,,,,,Bond Westbound @ Centre,0,1166:1,
43.929324,1,805,-78.834244,,,,,Grandview Southbound @ Rathburn,0,805:1,
43.90394,1,754,-78.866193,,,,,Adelaide Westbound @ Simcoe,0,754:1,
44.105095,2,2447,-78.985008,,,,,Reach Westbound @ Reach Industrial Park,0,2447:1,
43.92730266,1,807,-78.83849,,,,,Grandview Southbound @ Lindsay,0,807:1,
43.798313,2,93984,-79.217426,,,,,Sheppard Westbound @ Neilson,0,939841,
44.093585,2,2445,-79.035966,,,,,Reach Eastbound @ Marsh Hill (Epsom),0,2445:1,
43.839545,2,2053,-79.023794,,,,,Monarch Southbound @ Centennial,0,2053:1,
43.93206,1,3270,-78.867734,,,,,Ritson Northbound @ Pentland,0,3270:1,
43.8219172,1,93512,-79.0792351,,,,,Krosno Westbound @ Modlin,0,93512:1,
43.9136054,2,93727,-78.745863,,,,,Durham Highway 2 Eastbound @ Rundle,0,937271,
43.90267,2,2404,-79.011878,,,,,Taunton Westbound @ Audley,0,2404:1,
43.90931,2,93705,-78.715382,,,,,Highway 2 Eastbound @ Boswell,0,937051,
43.877818,1,422,-78.950632,,,,,Dundas Eastbound @ Annes,0,422:1,
43.9189142,1,367,-78.9417529,,,,,Westbound @ 440 Taunton,0,367:1,
43.84941,1,1942,-79.069849,,,,,Northbound @ 1802 Bainbridge,0,1942:1,
43.89017014,1,955,-78.882155,,,,,Southbound @ 104 Stevenson,0,955:1,
43.908294,2,3410,-78.922324,,,,,Thickson Southbound @ Winterberry,0,3410:1,
43.882531,2,172,-78.943093,,,,,Brock Street Northbound @ John,0,172:1,
43.815597,1,1673,-79.103191,,,,,West Shore Northbound @ Breezy,0,1673:1,
43.89627,1,467,-78.956033,,,,,Rossland Westbound @ Whitburn,0,467:1,
43.884855,2,208,-78.944315,,,,,Brock Street Southbound @ Chestnut,0,208:1,
43.90335675,1,1160,-78.847111,,,,,Bond Westbound @ Cadillac,0,1160:1,
43.957557,1,94094,-78.942081,,,,,Winchester Eastbound @ Winchester,0,940941,
43.902586,2,93718,-78.855132,,,,,Ritson Southbound @ William,0,937181,
43.8976792,1,465,-78.9492191,,,,,Rossland Westbound @ Brock Street,0,465:1,
43.931137,1,1354,-78.872498,,,,,Nonquon Northbound @ Mary,0,1354:1,
43.9554,2,3632,-78.95263,,,,,Winchester Eastbound @ St. Thomas,0,36321,
43.9679088,1,93485,-78.9488879,,,,,Carnwith Eastbound @ Thickson,0,93485:1,
43.944435,1,90050,-78.872409,,,,,Coldstream Westbound @ Ritson,0,90050:1,
43.873089,2,93747,-78.971771,,,,,Dundas Eastbound @ Des Newman,0,937471,
43.87885,1,424,-78.946098,,,,,Dundas Eastbound @ King,0,424:1,
44.105594,1,3224,-79.115221,,,,,Franklin Northbound @ Reach,0,3224:1,
43.916453,1,369,-78.952998,,,,,Taunton Westbound @ McKinney,0,369:1,
43.85915911,1,93459,-78.879187,,,,,Thornton Southbound @ Skae,0,93459:1,
43.852381,1,1602,-79.064752,,,,,Kingston Westbound @ Notion,0,1602:1,
43.916349,1,377,-78.95252,,,,,Taunton Eastbound @ Riverwood,0,377:1,
43.8904162,1,206,-78.9467193,,,,,Southbound @ 814 Brock Street,0,206:1,
43.914525,1,375,-78.960565,,,,,Taunton Eastbound @ Valleywood,0,375:1,
43.88521,2,174,-78.944286,,,,,Brock Street Northbound @ Chestnut,0,174:1,
43.872059,1,1023,-78.841181,,,,,Simcoe Southbound @ Ritson,0,1023:1,
43.860846,1,44,-78.94172,,,,,Westbound @ 500 Victoria (Iroquois Park Sports Centre),0,44:1,
43.868979,1,1025,-78.835431,,,,,Simcoe Southbound @ Kawartha,0,1025:1,
43.833128,2,94089,-79.027482,,,,,Clements Eastbound @ Finley,0,940891,
43.84167,1,1888,-79.112022,,,,,Finch Eastbound @ Huntsmill,0,1888:1,
43.909548,2,3123,-78.847296,,,,,Wilson Southbound @ Adelaide,0,3123:1,
43.809718,1,1617,-79.129028,,,,,Kingston Westbound @ Rougemount,0,1617:1,
43.85994,1,93457,-79.07961,,,,,Brock Road Northbound @ Dellbrook,0,93457:1,
43.88752003,1,1071,-78.80497908,,,,,Townline Northbound @ Grandview,0,1071:1,
43.89187877,1,311,-78.915149,,,,,Thickson Southbound @ Pine Hills,0,311:1,
43.914181,2,94041,-78.789765,,,,,Trulls Southbound @ Nash,0,940411,
43.96218,2,533,-78.945648,,,,,Thickson Southbound @ Blackfriar,0,5331,
43.789947,2,94009,-79.23395,,,,,Progress Northbound @ Milner Avenue,0,940091,
43.87593224,1,100,-78.961715,,,,,McQuay Northbound @ Dundas,0,100:1,
43.89315689,1,93161,-79.028651,,,,,Salem Northbound @ Williamson,0,93161:1,
43.808442,2,94030,-79.169871,,,,,Sheppard Eastbound @ Meadowvale (East side stop),0,940301,
43.808525,2,93969,-79.170563,,,,,Sheppard Westbound @ Meadowvale (East side stop),0,939691,
43.8232,2,3078,-79.026328,,,,,Parkes Eastbound @ Finley,0,3078:1,
43.939709,1,93360,-78.860169,,,,,Wilson Northbound @ Blackwood,0,93360:1,
43.917149,1,594,-78.862066,,,,,Rossland Westbound @ Ritson,0,594:1,
43.853654,2,93558,-78.974109,,,,,Victoria Eastbound @ Halls,0,935581,
43.939112,1,93177,-78.849112,,,,,Harmony Northbound @ Taunton (South side stop),0,93177:1,
43.9195199,1,381,-78.9379152,,,,,Taunton Eastbound @ Anderson,0,381:1,
43.781933,2,94006,-79.233259,,,,,Progress Eastbound @ Markham Road,0,940061,
43.826442,2,93499,-79.056838,,,,,Eastbound @ 1885 Clements,0,93499:1,
43.893724,1,93445,-78.806813,,,,,Glenabbey Westbound @ Townline,0,93445:1,
43.954945,2,94052,-78.885386,,,,,Britannia Eastbound @ Raike,0,940521,
43.887427,1,387,-78.90901,,,,,Dundas Westbound @ Kathleen,0,387:1,
43.8450351,1,1967,-79.0635992,,,,,Marshcourt Northbound @ Ashford,0,1967:1,
43.964939,2,94114,-78.961692,,,,,Carnwith Eastbound @ Leithridge,0,941141,
43.956653,2,3132,-78.857426,,,,,Conlin Eastbound @ Harmony,0,3132:1,
43.890744,1,1296,-78.859464,,,,,Elm Eastbound @ Celina,0,1296:1,
43.86144323,1,1033,-78.8478177953,,,,,Cedar Northbound @ Phillip Murray,0,1033:1,
43.84351,1,1870,-79.10432,,,,,Finch Westbound @ Dixie,0,1870:1,
43.885798,1,1083,-78.832236,,,,,Bloor Westbound @ Farewell,0,1083:1,
43.9184,1,592,-78.857043,,,,,Rossland Westbound @ Central Park,0,592:1,
43.864094,1,1031,-78.84241,,,,,Phillip Murray Southbound @ Fundy,0,1031:1,
43.894039,1,674,-78.86186,,,,,Simcoe Northbound @ John,0,674:1,
43.916109,2,93325,-78.779658,,,,,Courtice Northbound @ Nash,0,93325:1,
43.88983507,1,944,-78.881804,,,,,Stevenson Northbound @ Cartier (North side stop),0,944:1,
43.813671,1,1510,-79.134619,,,,,Altona Northbound @ Fiddlers,0,1510:1,
43.822905,2,1774,-79.10225,,,,,Westbound @ 950 Bayly,0,1774:1,
43.871232,2,216,-78.938597,,,,,Brock Street Southbound @ Burns,0,216:1,
43.846188,2,93942,-79.084113,,,,,Northbound @ 1955 Valley Farm Road,0,939421,
43.83746702,1,2299,-79.04730836,,,,,Bayly Eastbound @ Church,0,2299:1,
43.817616,1,1512,-79.136396,,,,,Altona Northbound @ Sheppard,0,1512:1,
43.809116,1,1776,-79.129988,,,,,Kingston Eastbound @ Rougemount,0,1776:1,
43.878553,1,1091,-78.864334,,,,,Bloor Westbound @ Park,0,1091:1,
43.8143165024,2,1706,-79.0651936917,,,,,Montgomery Park Eastbound @ OPG Pickering,0,1706:1,
43.852679,2,93556,-78.979746,,,,,Bayly Westbound @ Lake Ridge,0,935561,
43.843901,1,1947,-79.065168,,,,,Pickering Parkway Westbound @ Beechlawn,0,1947:1,
43.890302,1,1298,-78.852093,,,,,Olive Eastbound @ Drew,0,1298:1,
